"identifiant","adresse","raison_sociale","nom","code_postal","code_insee","nom_commune","longitude","latitude"
"IDF9102292","RN188 - RD120","MASSY NET",NULL,"91300","91377","Massy","2.27791206965317","48.7247218757897"
"IDF9100441","Gambetta, place","COMBEAU",NULL,"91800","91114","Brunoy","2.48729574169094","48.7014193198742"
"IDF9100085","Nollet, clos","SIEMP",NULL,"91200","91027","Athis-Mons","2.39842047686089","48.7145861296976"
"IDF9100113","Froelinger, 5 place","ROBIEZ",NULL,"91200","91027","Athis-Mons","2.40378488759103","48.7120651716616"
"IDF9100351","Cheneaux, chemin des","FERNANDES","Casse automobile","91220","91103","Brétigny-sur-Orge","2.28210688988098","48.6064168096235"
"IDF9102176","Osiers, chemin des","RAVENEAU",NULL,"91310","91347","Longpont-sur-Orge","2.29673404215835","48.6447854403618"
"IDF9100388","Robiniers, 7 allée des","MISSENARD QUINT",NULL,"91220","91103","Brétigny-sur-Orge","2.3025054190091","48.6195180990301"
"IDF9103106","Petit Saint-Vrain, 5-9 rue du","TRANSMECA",NULL,"91770","91579","Saint-Vrain","2.32495848792967","48.5415481621758"
"IDF9103285",NULL,"ESPACE COMPOSITES","Atelier de transformation de résines","91810","91648","Vert-le-Grand","2.36371867203305","48.5710952440195"
"IDF9103313","Barbusse, 184-188, av. Henri (ex n° 182-184 en 1963 ; RN 448)","BALDIT, ex BALDIT Joseph Entreprise","Commerce de combustibles","91270","91657","Vigneux-sur-Seine","2.43242682258364","48.7034388359294"
"IDF9103314","Barbusse, 221 av. Henri (RN 448)","ITALCAR 91, ex LE GALLOU et Cie","Concessionnaire, carrosserie","91270","91657","Vigneux-sur-Seine","2.43757988477057","48.7053588414961"
"IDF9103322","Couturier, 50 av. Paul Vaillant (ex n°38)","LINCK","Atelier de travail des métaux, ferrailleur","91270","91657","Vigneux-sur-Seine","2.44322993113374","48.6952557557737"
"IDF9102276","Europe, avenue de l'","PHOTO SERVICE + DIM PHOTORAPID + JCA PRESSING (Pressing 5 à sec) + GMB - CORA",NULL,"91300","91377","Massy","2.27711012725471","48.7247304480183"
"IDF9102277","Europe, 188 avenue de l'","RENAULT, ex SAM (Sté des Automobiles de Massy)","Garage","91300","91377","Massy","2.28033031733765","48.7257212967524"
"IDF9102278","France, avenue de","ELF FRANCE, ex UNION GENERALE DE DISTRIBUTION DES PRODUITS PETROLIERS, ex UNION INDUSTRIELLE DES PETROLES","Station service","91300","91377","Massy","2.29006858701501","48.7335853470747"
"IDF9100018","Paris, avenue de  (ex RN 20)","CTIA (CHAUDRONNERIE-TOLERIE INDUSTRIELLE D'ANGERVILLE), ex TAQQUET Claude","Chaudronnerie","91670","91016","Angerville","2.00466353452696","48.3161145650571"
"IDF9100020","Paris, 13-15 avenue de (ex 21 avenue de Paris)","PRODUITS LIBERON, ex SPL (Sté PROMOTIONNELLE DES LOISIRS)","Fabrique de produits d'entretien","91670","91016","Angerville","2.00412803192899","48.3155464710861"
"IDF9101078","Grenots, 26 avenue des. CR 59 de St - Michel à Villeneuve Montfaucon","SECMI (Sté d'ETUDES ET DE CONSTRUCTIONS DE MATERIELS INDUSTRIELS), ex JOULIN - SEMA, ex JOULIN Michel","Atelier de transformation de l'acier","91150","91223","Étampes","2.15516502290946","48.4521880912304"
"IDF9101079","Grenots, 27 avenue des (ex Voie Nouvelle Ouest)","FVI (FRANCE VEHICULES INDUSTRIELS)","Garage pour véhicules industriels","91150","91223","Étampes","2.15308633751423","48.4513394402433"
"IDF9101082","Libération, 3 avenue de la","PRESTEX","Blanchisserie, teinturerie","91150","91223","Étampes","2.15541000568473","48.4330975244143"
"IDF9101086","Huit mai 1945, avenue du. Route de Dourdan (N 191)","SEVC (Sté VERSAILLAISE D'EXPLOITATION DE CHAUFFAGE) + SYNDICAT INTERHOSPITALIER DU SECTEUR 9","Hôpital","91150","91223","Étampes","2.15960147073683","48.4438591331395"
"IDF9100862","Acacias, 11 avenue des (D 836)","COOPERATIVE AGRICOLE ILE DE FRANCE SUD","Coopérative agricole","91410","91200","Dourdan","2.00414143960378","48.5352597362536"
"IDF9102435","Gaulle, av. du Général de","TOTAL FRANCE - Compagnie de Raffinage et de Distribution","Raffinerie","91230","91421","Montgeron","2.45451398870585","48.6959093397169"
"IDF9102436","Gaulle, 129 av. Charles de","RUFFIN HEITMANN","Station service, garage","91230","91421","Montgeron","2.44598879312408","48.6922937607505"
"IDF9102438","Jaurès, 38 av. Jean (ex 36 av. de Melun)","BERGERON (GARAGE DES ROUTIERS)","Station service, garage","91230","91421","Montgeron","2.44397914792302","48.7179967247699"
"IDF9102439","Jaurès, 72 av. Jean (+ chemin du Réveil Matin)","SHERIDEL, ex ELECTRO - FRANCE + MONTGERON DISTRIBUTION , ex SUMA  (Sté des Supermarchés Doc - groupe Docko de France) + Ent. SEYRA","Station service","91230","91421","Montgeron","2.44530605707686","48.7157203248289"
"IDF9102440","Jaurès, 98 av. Jean","SANITRA, ex ETF (Etude et Travaux de fondation)","Travaux publics","91230","91421","Montgeron","2.44751630753852","48.7135239914884"
"IDF9102457","République, 105 av. de la (ex n°96-98)","ESSO FRANCAISE (groupe EXXON)","Station service","91230","91421","Montgeron","2.45859789582112","48.7050416143066"
"IDF9102458","République, 105 av. de la","ESSO FRANCAISE (groupe EXXON)","Station service","91230","91421","Montgeron","2.46246574161319","48.7033018381673"
"IDF9102459","République, 126 av. de la","PRESSING l'UNION","Pressing","91230","91421","Montgeron","2.46147388116627","48.7032759470688"
"IDF9103486","Kennedy, 50 avenue du Président","MURAT","Fabrique de bijoux","91170","91687","Viry-Châtillon","2.36911709788276","48.6645359948595"
"IDF9103487","Kennedy, 117 avenue du Président (ex Chemin de Corbeil à Savigny-sur-Orge)","GILS Gilbert","Station service, garage","91170","91687","Viry-Châtillon","2.3631720047124","48.6665608505515"
"IDF9103042","Gaulle, av. Charles de","BISONTINE DE PRODUITS PETROLIERS, ex MAGMA","Station service","91250","91553","Saint-Germain-lès-Corbeil","2.49278712555068","48.6195428227884"
"IDF9103205","Acadie, 3 avenue de l'","EAV",NULL,"91940","91692","Les Ulis","2.20010622917372","48.6869304882269"
"IDF9103206","Acadie, 4 avenue de l'","SIGNATURE, ex LKB INSTRUMENT, ex PHARMACIA FRANCE","Fabrique de matériel et systèmes de signalisation","91940","91692","Les Ulis","2.19907264693167","48.6874238349849"
"IDF9103207","Amazonie, 1-3 avenue de l'","NARBONI",NULL,"91940","91692","Les Ulis","2.19580380324898","48.6810799893139"
"IDF9103209","Andes, avenue des","GARAGE DES ANDES, ex ANDES ULIS","Garage","91940","91692","Les Ulis","2.19404749240259","48.6779033823223"
"IDF9103210","Andes, 4 avenue des","INSTRUMAT",NULL,"91940","91692","Les Ulis","2.19432732676558","48.679765215612"
"IDF9103211","Andes, 5 avenue des","IN SNEC, ex INTERTECHNIQUE, ex PARFUMS FABERGE","Fabrique de matériel pour l'électronique et la radioélectricité","91940","91692","Les Ulis","2.19559124309912","48.6794160819285"
"IDF9103213","Atlantique, avenue de l'","CMG (Constructions Mécaniques GRILLOT)",NULL,"91940","91692","Les Ulis","2.20017194431906","48.68278494794"
"IDF9103214","Atlantique, avenue de l'","FIO (Fabrications Industrielles de l'Ouest)",NULL,"91940","91692","Les Ulis","2.19861344600494","48.6816050210534"
"IDF9103215","Atlantique, 4 avenue de l'","EURALTECH, ex HERAEUS FRANCE",NULL,"91940","91692","Les Ulis","2.19871737042383","48.6833047614113"
"IDF9103216","Atlantique, 6 avenue de l'","SYSTRONIC",NULL,"91940","91692","Les Ulis","2.19858368678785","48.6825402220081"
"IDF9103217","Canada, 1 avenue du","HEWLETT-PACKARD FRANCE, ex TEKTRONIX",NULL,"91940","91692","Les Ulis","2.19212246566632","48.6861292339093"
"IDF9103218","Canada, 5 avenue du","INSTITUT HENRI BEAUFOUR","Laboratoire","91940","91692","Les Ulis","2.19563464510374","48.6880490964365"
"IDF9103219","Canada, 6 avenue du","LABORATOIRE AMERSHAM FRANCE","Laboratoire","91940","91692","Les Ulis","2.19949197222149","48.6880448373976"
"IDF9103220","Cap Horn, 11 avenue du","SALVESEN",NULL,"91940","91692","Les Ulis","2.19743798036599","48.6746072912266"
"IDF9103221","Bourgogne, avenue de","SNC GESMIN,  ex FRANCAISE DES PETROLES BP","Station service, garage","91940","91692","Les Ulis","2.17386760141096","48.6823545495783"
"IDF9103223","Champagne, avenue de","PRESSING LA TREILLE","Pressing","91940","91692","Les Ulis","2.17366611649391","48.6899620623792"
"IDF9103233","Pacifique, 3 avenue du","ERCA",NULL,"91940","91692","Les Ulis","2.19458110115484","48.6812493238051"
"IDF9103234","Parana, 4 avenue du","FRANCE GLACE FINDUS",NULL,"91940","91692","Les Ulis","2.19692139623686","48.6796515390925"
"IDF9103235","Provence, avenue de","THERMULIS, ex AUXILIAIRE DE CHAUFFAGE","Centrale de chauffage","91940","91692","Les Ulis","2.17778623717574","48.6757774742673"
"IDF9103238","Scandinavie, avenue de","DAPA SYSTEMES",NULL,"91940","91692","Les Ulis","2.20195302974259","48.6870496030617"
"IDF9103239","Scandinavie, avenue de","EURO INVESTISSEMENTS, ex FAA (Fabrication Aéronautique Atesma), ex EURO INVESTISSEMENTS",NULL,"91940","91692","Les Ulis","2.20075731667097","48.687237021553"
"IDF9103240","Scandinavie, 7 avenue de","EUROBIO LABORATOIRES","Laboratoire","91940","91692","Les Ulis","2.20428744252626","48.687672847937"
"IDF9103241","Tropiques, avenue des","CHROMPACK FRANCE",NULL,"91940","91692","Les Ulis","2.1980925156034","48.6784839308151"
"IDF9103243","Tropiques, avenue des","SEB",NULL,"91940","91692","Les Ulis","2.20142136116993","48.6827864458567"
"IDF9102781","Jaurès, 87 avenue Jean","ENCRES ET VERNIS, ex CHIMIQUE DE CHANTOPAC + OIFFER","Fabrique pour imprimerie et graphisme","91550","91479","Paray-Vieille-Poste","2.37045246723634","48.7127542297437"
"IDF9102783","Verdun, 82 avenue de","AIR FRANCE",NULL,"91550","91479","Paray-Vieille-Poste","2.36490445675145","48.7059482644557"
"IDF9102784","Verdun, 116 avenue de","SOLIA",NULL,"91550","91479","Paray-Vieille-Poste","2.36145330659141","48.7058141613918"
"IDF9102785","Verdun, 166 avenue de","TRANSPORTS DE SAVIGNY","Transports urbains","91550","91479","Paray-Vieille-Poste","2.36581486985652","48.7061009147449"
"IDF9103249","Tropiques, 7 avenue des","VARIAN",NULL,"91940","91692","Les Ulis","2.19844130288724","48.6849051197515"
"IDF9103250","Tropiques, 12 avenue des","AEA TECHNOLOGY, ex LABORATOIRES AMERSHAM FRANCE + RENAULT SPORT",NULL,"91940","91692","Les Ulis","2.20251937620946","48.6835341421548"
"IDF9103387","Québec, 22 avenue du","FRANCAISE DE TEROTECHNOLOGIE (Produits CASTOLIN)",NULL,"91140","91661","Villebon-sur-Yvette","2.22114744262318","48.6914682128133"
"IDF9102868","Joliot-Curie, av. Irène et Frédéric","SNAG (Service National des Ateliers - Garages - Ministère des Postes et des Télécommunications)","Garage, carrosserie","91130","91521","Ris-Orangis","2.39719235430598","48.6312699137044"
"IDF9102874","Libération, 14 av. de la (RN 7)","FRANCIS AUTO, ex ETIENNE Claude, ex RIS - MOTO","Garage","91130","91521","Ris-Orangis","2.41201230966253","48.6528524258158"
"IDF9102875","Libération, 34 av. de la (RN 7)","MOREL Emile","Station service","91130","91521","Ris-Orangis","2.41316450765005","48.6518894503125"
"IDF9102876","Libération, 39 av. de la","GARAGE HEURTEL, ex CHRIQUI Jacques","Garage, concessionnaire","91130","91521","Ris-Orangis","2.41425005008368","48.6517358454089"
"IDF9102877","Libération, 64 av. de la (RN 7)","SHELL FRANCAISE, ex PAILLARD, ex PAILLARD et CARRE, ex  Marcel CARRE","Station service","91130","91521","Ris-Orangis","2.41552315582938","48.6500263755077"
"IDF9102878","Libération, 71 av. de la (RN 7)","SHELL, ex PAILLARD","Station service","91130","91521","Ris-Orangis","2.4164730621689","48.6499537763886"
"IDF9102879","Libération, 75 av. de la (RN 7)","ELF FRANCE, ex UIP (UNION INDUSTRIELLE DES PETROLES), ex CALTEX","Station service","91130","91521","Ris-Orangis","2.41682535289105","48.6495938249933"
"IDF9102890","Plat, 17 av. Auguste","HLM DE L'ESSONNE",NULL,"91130","91521","Ris-Orangis","2.40258196791852","48.6444321419067"
"IDF9102945",NULL,"BOURDIN et CHAUSSE","Centrale d'enrobage","91410","91546","Saint-Cyr-sous-Dourdan","2.02835767369304","48.5738706186486"
"IDF9100936","Barbusse, 296 Bd Henri (N 448)","COPER (Sté NOUVELLE COPER), ex COPER, ex FILOTEX","Fabrique de matériels électriques","91210","91201","Draveil","2.41454723007519","48.6946395726103"
"IDF9100041","Girault, 4 boulevard Ernest (ex chemin de la Roche en 1929)","LABORD Raoul","Fabrique de colle","91290","91021","Arpajon","2.24593807070266","48.5940826458403"
"IDF9101158","Saint-Michel, 104 boulevard (N 20)","COLLOMBEL, ex TORRES, ex  AUBERT, ex AUBERT Mme, ex MOREAU, ex MOREAU André, ex DERANCOURT, ex HEBERT","Station service","91150","91223","Étampes","2.17311073512745","48.4500303471189"
"IDF9101159","Saint-Michel, 106 boulevard (D21, ex RN 20)","ESSO SAF, ex ESSO - STANDARD","Station service","91150","91223","Étampes","2.17118764459731","48.4470330592956"
"IDF9101160","Saint-Michel, 117 boulevard (D 21)","HLM EMMAUS","HLM","91150","91223","Étampes","2.16898761203035","48.4501052302692"
"IDF9103338","Marin, 38 av. Pierre","BOULARD Clément","Commerce de combustibles","91270","91657","Vigneux-sur-Seine","2.41621845247104","48.7008497002926"
"IDF9102468","Longueraie, 8 rue de la","DOCKS DE FRANCE PARIS, ex SUPERMARCHES DOC (MAMMOUTH)","Station service","91270","91657","Vigneux-sur-Seine","2.43783065267011","48.715169629256"
"IDF9103340","Marin, 69 av. Pierre","ITG (Impressions et Techniques Graphiques)","Photogravure","91270","91657","Vigneux-sur-Seine","2.41621817961087","48.7006699296734"
"IDF9103341","Martin, 41 rue Henri","AMV (Ateliers Mécaniques Vigneux)","Fabrique d'éléments d'appareils téléphoniques","91270","91657","Vigneux-sur-Seine","2.43808219162885","48.7013724596976"
"IDF9103346","Petit et Vergeat, 4 place le","QUINTIN",NULL,"91270","91657","Vigneux-sur-Seine","2.44162135888439","48.6953373720793"
"IDF9103347","Port Brun, 40 chemin du","ATLM","Station de transit d'ordures ménagères","91270","91657","Vigneux-sur-Seine","2.44311968815477","48.7228535756685"
"IDF9103350",NULL,"ESPACE PHOTO VALDOLY + SUPERMARCHES DOC (SUMA) (AUCHAN) (filiale de la Sté des Docks de France)","Atelier de traitement des surfaces photosensibles","91270","91657","Vigneux-sur-Seine","2.44388517070297","48.718536373705"
"IDF9103343","Molière, 9 rue","IMPRIMERIE DE VIGNEUX","Imprimerie","91270","91657","Vigneux-sur-Seine","2.4154127410125","48.7068725408908"
"IDF9103310","Barbusse, 5 av. Henri (RN 448)","ROURE Daniel, ex JOANNET André, ex CATHIER Raymond, ex COMMUNE DE DRAVEIL","Pressing","91270","91657","Vigneux-sur-Seine","2.41580686565085","48.6980635231354"
"IDF9103311","Barbusse, 35-39 av. Henri","PETROLES SHELL BERRE","Station service","91270","91657","Vigneux-sur-Seine","2.41879739555123","48.7001288738235"
"IDF9103312","Barbusse, 54 av. Henri (RN 448)","BP FRANCE, ex MOBIL OIL FRANCAISE","Station service","91270","91657","Vigneux-sur-Seine","2.42007114920739","48.699977328936"
"IDF9103308","Acacias, 11-13 rue des","MONOT","Atelier de traitement des métaux","91270","91657","Vigneux-sur-Seine","2.43249090410978","48.6943112241852"
"IDF9103318","Charon, 4 bd. Henri (ex avenue de la Gare)","IDEX et Cie (l'Industrielle d'Exploitation de Chauffage)","Compagnie de chauffage","91270","91657","Vigneux-sur-Seine","2.42437386894094","48.7055180292883"
"IDF9103323","83 av. Paul Vaillant Couturier)","MG 2000","Commerce de combustibles","91270","91657","Vigneux-sur-Seine","2.43481385286797","48.6964314847089"
"IDF9103324","Vaillant Couturier, 123 av. Paul","VICTOIRE, ex CROIZET Raymond","Station service","91270","91657","Vigneux-sur-Seine","2.44078752744455","48.6960668828225"
"IDF9103327","Montalbot, 1 av. de la Fosse","CIBA (ENTREPRISE L. BOTTAZI et Cie)",NULL,"91270","91657","Vigneux-sur-Seine","2.43308296142227","48.7150391059689"
"IDF9103333","chemin de la Longue Raie - CR 4","COMPAGNIE DES SABLIERES DE LA SEINE + COMMUNE DE VIGNEUX-SUR-SEINE",NULL,"91270","91657","Vigneux-sur-Seine","2.4303829953131","48.7148342446273"
"IDF9103326","Mainville, 49 rue de (ex 3 rue Victor Duruy)","BADIALI Franck","Fabrique de câbles électriques","91270","91657","Vigneux-sur-Seine","2.41824527486022","48.6943765705727"
"IDF9102474","Bel Egoût, chemin du","MONTLHERY, commune de","Décharge d'ordures ménagères","91310","91425","Montlhéry","2.26180937951026","48.6502531463348"
"IDF9102476","Croix du Mesnil, 14 chemin de la","ORTEL, ex SCI LES MONTS JOIES","Fonderie","91310","91425","Montlhéry","2.27231661892551","48.6482003161829"
"IDF9102480","Moulin à vent, 2 chemin du","CIRCUIT IMPRIMES THIERRY (ex filiale de la Sté SOFRANELEC à MENNECY), ex SERIGRAPHIE THIERRY","Fabrique de matières plastiques","91310","91425","Montlhéry","2.26055582021613","48.6446409064295"
"IDF9102475","Chesneau, 19 rue Ernest","CHANTIER DU MARCHE, ex SIMON","Chantier","91310","91425","Montlhéry","2.27118742294719","48.6400433531297"
"IDF9102477","Fort, 121 rue Paul","SCREG (Sté Chimique Routière et d'Entreprise Générale)","Travaux publics","91310","91425","Montlhéry","2.25544981007929","48.6468315509191"
"IDF9102478","Fort, 123 rue Paul","TRANSPORTS DANIEL MEYER","Transports routiers","91310","91425","Montlhéry","2.25487863301487","48.6475595418938"
"IDF9102479","Longpont, rue de","BERGERAT MONNOYEUR ENERGIE, ex ENERGIE AUTONOME, ex BOLLARD et Cie","Atelier de groupes électrogènes","91310","91425","Montlhéry","2.2766352485867","48.645747711415"
"IDF9102486","Paris, 1 rue de","TRANSPORTS DANIEL MEYER","Transports","91310","91425","Montlhéry","2.27147005146348","48.6418060713965"
"IDF9102288","Kennedy, 9 avenue du Président","AUTO BILAN, ex GARAGE GASOL, ex RICHARD Jacques, ex DENOS Roger","Garage","91300","91377","Massy","2.30073588961327","48.7395514119476"
"IDF9102294","Noyer Lambert, avenue du","INSTITUT HOSPITALIER JACQUES CARTIER, ex HOPITAL PRIVE DE MASSY","Hôpital","91300","91377","Massy","2.29307506965007","48.7312124841528"
"IDF9102256","Carnot, 1-5 avenue","GETEL, ex SAFAA, ex JOUAN + ROUSSEL-UCLAF","Fabrique d'appareils d'émission et de transmission","91300","91377","Massy","2.26973731374384","48.729096760508"
"IDF9102257","Carnot, 4 avenue","CARS CHARPENTIER","Transports","91300","91377","Massy","2.26799654080127","48.7296982254774"
"IDF9102250","Buisson aux Fraises, 5 rue du","KIRK'S SUEDE LIFE FRANCE",NULL,"91300","91377","Massy","2.28666824804433","48.7218754205983"
"IDF9102259","Carnot, 16 avenue","RADIO-ENERGIE",NULL,"91300","91377","Massy","2.26613540989015","48.7288787450778"
"IDF9102260","Carnot, 19 avenue","ERICSSON, ex CGCT (Compagnie Générale de Constructions Téléphoniques)","Fabrique de matériel et systèmes de télécommunication","91300","91377","Massy","2.26711589032592","48.7276203774302"
"IDF9102261","Carnot, 21 avenue","REXSON PROCEDES, ex COMPAGNIE FRANCAISE DE CONDUITES EAU, ex FRANCAISE DES PLASTIQUES FRANPLASTIC",NULL,"91300","91377","Massy","2.26562181360261","48.7268280920676"
"IDF9102262","Carnot, 23 avenue","CHARDON, ex CURRUS, ex ETM (Etude et Travail des Métaux), ex SECS (Sté d'Etudes et de Constructions Spéciales)",NULL,"91300","91377","Massy","2.26498355930961","48.7264140257283"
"IDF9102263","Carnot, 25 avenue","SENPOF GIREBRONZE (Etudes de Nouveaux Procédés et d'Outillages de Fonderie)",NULL,"91300","91377","Massy","2.2644131594473","48.7260809333369"
"IDF9102264","Carnot, 29 avenue","THOMSON CSF + OMEGA Technologies + SAPHYMO",NULL,"91300","91377","Massy","2.26353050235264","48.7255048341112"
"IDF9102273","Division Leclerc, avenue de la","ELF","Station service","91300","91377","Massy","2.30130972543762","48.7356667551684"
"IDF9102265","Cassin, 11 rue rené","SOLER CONSEIL",NULL,"91300","91377","Massy","2.28460043641383","48.7237089899369"
"IDF9102266","Champarts, 2 rue des","FNAC",NULL,"91300","91377","Massy","2.29653726866732","48.7197391173351"
"IDF9102274","Dormoy, 25 rue max","BOISHARDY Michel, ex LAV'NET SELF","Menuiserie","91300","91377","Massy","2.27432880380343","48.7315004343668"
"IDF9102284","Gare, 104-106 avenue de la","LEGROS","Dépôt de liquides inflammables","91300","91377","Massy","2.27278913516034","48.7342513348165"
"IDF9102285","Ramolfo Garnier, 13 avenue Marcel","SFIM (Fabrication d'Instruments de Mesure)","Fabrique d'appareils de mesure","91300","91377","Massy","2.26250052247247","48.7234808100755"
"IDF9102281","Galvani, 6 rue","CGG (Compagnie Générale de Géophysique)",NULL,"91300","91377","Massy","2.27075220780284","48.7223528476989"
"IDF9102282","Galvani, 8 rue","MACALECTRO (Composants et Systèmes Electromagnétiques)",NULL,"91300","91377","Massy","2.27118797871221","48.7217146211089"
"IDF9102269","Champlan, route de","EXPRESS casse auto, ex CARMOTEX, ex BEAUFILS Anne-Marie, ex BARBET Serge","Casse automobile","91300","91377","Massy","2.28467265134734","48.7196713117469"
"IDF9100931","Barbusse, 158 Bd Henri (N 448)","SIF + FGCK (Fournitures Générales pour centres de kinésithérapie), ex BERGERAND de Joly et Cie",NULL,"91210","91201","Draveil","2.40965291701988","48.6824487473261"
"IDF9100932","Barbusse, 167 Bd Henri (N448)","RENAUD Emille","Garage","91210","91201","Draveil","2.41456277993092","48.6959075275941"
"IDF9100933","Barbusse, 226 Bd Henri (N 448)","GARAGE DU CENTRE (Concessionnaire Peugeot), ex MISSIOUX","Garage","91210","91201","Draveil","2.40941441370398","48.686558542738"
"IDF9100934","Barbusse, 228 Bd Henri (N448)","ESPARGILIERE","Stockage de combustibles","91210","91201","Draveil","2.40995794236962","48.6867380497796"
"IDF9100929","Barbusse, 122-124 Bd Henri (N 448)","PETROLES SHELL, ex SHELL BERRE",NULL,"91210","91201","Draveil","2.40979990908887","48.6808029979263"
"IDF9100935","Barbusse, 284-288 Bd Henri (N 448)","TEXIER ET FILS, ex TEXIER",NULL,"91210","91201","Draveil","2.4130908435737","48.6927251156702"
"IDF9100930","Barbusse, 154 Bd henri (N448)","LAVERIE VILLIERS","Laverie","91210","91201","Draveil","2.4087291307983","48.6822335078939"
"IDF9102233","Allende, 3 avenue Président Salvador","BP","Station service","91300","91377","Massy","2.26345547519055","48.7302798993786"
"IDF9102247","Briis, voie de","TUILERIES ET BRIQUETERIES DE MASSY",NULL,"91300","91377","Massy","2.27371330315468","48.7237933659298"
"IDF9102238","Ampère, 11 rue","KINOPTIC, ex SOPOLEM/SOFRETEC (Division KINOPTIK) + SFIM INDUSTRIES + MTO","Fabrique de matériel optique","91300","91377","Massy","2.26748105500598","48.7192214398042"
"IDF9102239","Ampère, 13 rue","COMPAGNIE GENERALE DE GEOPHYSIQUE",NULL,"91300","91377","Massy","2.26859491149339","48.7196357796225"
"IDF9102240","Ampère, 15 rue","RECKITT et COLMAN","Fabrique de produits d'entretien","91300","91377","Massy","2.26985817578258","48.720131131113"
"IDF9102302","Leclerc, 401 avenue du maréchal","SAPIA",NULL,"91300","91377","Massy","2.30181507389803","48.7323845846834"
"IDF9100937","Bellevue, 3 avenue de","NICOLITCH, ex LHOMARGY","Fabrique de circuits imprimés","91210","91201","Draveil","2.38895708850792","48.68335031171"
"IDF9100120","Industrie, 25 quai de l'",NULL,NULL,"91200","91027","Athis-Mons","2.39198600117271","48.6960824974861"
"IDF9100064","Verdun, 4 avenue de","ROUSSEAU M., ex VERHAEGUE Jean","Casse automobile","91290","91021","Arpajon","2.24450425317861","48.5850619210174"
"IDF9100065","Verdun, 18 avenue de","CENTRE HOSPITALIER D'ARPAJON, ex HOPITAL HOSPICE D'ARPAJON","Hôpital","91290","91021","Arpajon","2.24222891034554","48.5841427973751"
"IDF9100066","Verdun, 36 avenue de (ex 36 rue du Docteur Louis Martin, ex RN20)","APPIA, ex SCR (Sté CHIMIQUE DE LA ROUTE), ex MERCIER PINCEMAILLE","Travaux publics","91290","91021","Arpajon","2.24449843220288","48.5882003277904"
"IDF9100067","Verdun, 50 avenue de","GARAGE DE LA CROIX ROUGE","Garage","91290","91021","Arpajon","2.24121891772899","48.5807337603451"
"IDF9100058","Marché, 7 place du","DAUMET M.","Blanchisserie, teinturerie","91290","91021","Arpajon","2.24979795547204","48.5884653154559"
"IDF9100063","Chevreuse, chemin de (CR n°10)","SIORAT","Centrale d'enrobage","91290","91021","Arpajon","2.23652069191284","48.5986159471222"
"IDF9100059","Minard, rue","CALORSTAT INDUSTRIES","Fabrique de pièces métalliques","91290","91021","Arpajon","2.24601543626061","48.5888310370204"
"IDF9100062","Pont d'Avignon, 5 rue du","DRMTP (Sté DIFFUSION REPARATION MATERIEL TP)","Stockage de déchets industriels","91290","91021","Arpajon","2.24499009229","48.6008982653789"
"IDF9100254","Bechevret, 51 avenue de (CV N°4).","SOUDEX (1976)","Fabrique de colle","91790","91085","Boissy-sous-Saint-Yon","2.21476320087559","48.5532270203253"
"IDF9100255","Ferté Alais, 26 chemin de la","BOURDIN et CHAUSSE","Garage","91790","91085","Boissy-sous-Saint-Yon","2.21847885923137","48.551459435082"
"IDF9100252","Bechevret, lieu-dit le","PETROREP","Forage pétrolier","91790","91085","Boissy-sous-Saint-Yon","2.22272024682832","48.5506724486056"
"IDF9100076","Dix Huit Avril, 104-106 rue du","HLM LA SABLIERE",NULL,"91200","91027","Athis-Mons","2.38867815890218","48.7025947292006"
"IDF9100068","Verdun, 132 avenue de","FRANCE TELECOM","Téléphonie","91520","91207","Égly","2.23690568066757","48.5756762040939"
"IDF9100075","Dix Huit Avril, 90 avenue du","GARAGE DE L'ORGE, ex PIAUD Gérard, ex ELF FRANCE, ex ELF DISTRIBUTION","Station service, garage","91200","91027","Athis-Mons","2.38711464974021","48.7014803347884"
"IDF9100077","Dix Huit Avril, 125-127 avenue du","IMMOBILIERE DU MOULIN VERT, ex PROCALOR","Centrale de chauffage","91200","91027","Athis-Mons","2.38842089210057","48.7034401557539"
"IDF9100256","Paris, 82 avenue de (RN 20)","JAME, ex REBOLLAR (en 1973)","Garage","91790","91085","Boissy-sous-Saint-Yon","2.21449935166091","48.5448276913742"
"IDF9100069","Voltaire, 3 boulevard","PRISUNIC","Station service","91290","91021","Arpajon","2.25160147985821","48.5880530304717"
"IDF9100070","Voltaire, 4 boulevard","LABORATOIRES DELAGRANGE, ex SESIIF +  CHIMINDUSTRIE + SOFRAC, ex LABORATOIRES JEAN PFEIFLE, ex ENTREPOTS DE L'ORGE","Laboratoire pharmaceutique","91290","91021","Arpajon","2.25305149024157","48.5882699362808"
"IDF9100078","Bérégovoy, rue Pierre (ex 12 rue des Froides Bouillies)","MISSENARD et QUINT, ex HLM LE FOYER DU FONCTIONNAIRE ET DE LA FAMILLE (F.F.F.)",NULL,"91200","91027","Athis-Mons","2.36267532071367","48.7042311856697"
"IDF9100071","Voltaire, 8-10 boulevard","MOREL MAURICE","Fabrique de colle","91290","91021","Arpajon","2.25336185122262","48.5891064761457"
"IDF9100282","Gaulle, 30 rue Charles de","ATELIER LEFEVRE A.","Carrosserie","91070","91086","Bondoufle","2.37920105799365","48.6128251499868"
"IDF9100315","Ferme, 6 esplanade de la","PRESSING DE LA FERME","Pressing","91800","91097","Boussy-Saint-Antoine","2.52932816806721","48.6903490947088"
"IDF9100285","Gutenberg, 5 rue","LINDQVIST INTERNATIONAL, ex EXPLOTEC, ex LJL","Industrie chimique","91070","91086","Bondoufle","2.39002924820535","48.61851295179"
"IDF9100345","Brossolette, boulevard P.","SNCF - Région de Paris RIVE GAUCHE",NULL,"91220","91103","Brétigny-sur-Orge","2.30021045328752","48.6049133929774"
"IDF9100353","Clause, 28 avenue Lucien (ex rue)","DYNAMIC SPRAY, ex GUIRACO","Imprimerie","91220","91103","Brétigny-sur-Orge","2.29946220209884","48.608195443945"
"IDF9100358","Paris, avenue de la commune de; résidence La Moinerie","DALKIA, ex SOCHAN, ex CHALVENT (en 1980), ex ACOVEX (en 1977)","Compagnie de chauffage","91220","91103","Brétigny-sur-Orge","2.3054486589568","48.5982334838617"
"IDF9100359","Paris, 2 avenue de la commune de; parc de La Moinerie","SACUR (Sté Auxilliaire de Chauffage Urbain)","Compagnie de chauffage","91220","91103","Brétigny-sur-Orge","2.3056382048537","48.5986471957472"
"IDF9100342","Bretagne, 1 rue de","EXALTEX","Garage","91220","91103","Brétigny-sur-Orge","2.30226548858572","48.5941139446939"
"IDF9100332","Base aérienne 217 (militaire). Aérodrome de Brétigny sur Orge","SAC (Sté AUXILIAIRE DE CHAUFFAGE) + CEV (CENTRE D'ESSAIS EN VOL)","Compagnie de chauffage","91220","91103","Brétigny-sur-Orge","2.32727556896052","48.6029136375422"
"IDF9100334","Allende, 41 rue Salvador (ex rue Saint-Michel)","AVIA","Station service","91220","91103","Brétigny-sur-Orge","2.3113209699587","48.6208423629074"
"IDF9100086","Clos-Brétigny, 4","TOTAL CFR","Station service","91200","91027","Athis-Mons","2.39847471253022","48.7144871811313"
"IDF9100084","Chênes, 14 avenue des","ALU-BRONZE",NULL,"91200","91027","Athis-Mons","2.3790060189148","48.7039296048126"
"IDF9100090","Dunant, 5-7 avenue Henri","TOTAL CFR, ex ROUCARI","Station service","91200","91027","Athis-Mons","2.38624023026131","48.710284535626"
"IDF9100082","Carnot, 10-12 rue","GARAGE DU VAL D'ATHIS, ex MONEVEU René","Station service, garage","91200","91027","Athis-Mons","2.39146530030089","48.7044369317347"
"IDF9100083","Charton, 22 bis rue René","SOEUR",NULL,"91200","91027","Athis-Mons","2.37393921995276","48.7051903249996"
"IDF9100091","Dunant, 28 avenue Henri","SHELL",NULL,"91200","91027","Athis-Mons","2.38874091934981","48.7107420576575"
"IDF9100092","Dunant, 90-92 avenue Henri","VERDIER AUTOMOBILES, ex CENTRE AUTOMOBILE, ex VERDIER Georges, ex CFPP ELF","Garage","91200","91027","Athis-Mons","2.40092527340184","48.7180019720555"
"IDF9100099","Mitterrand, 58 avenue François","BIDAUD PERE ET FILS, ex BIDAUD Maurice","Station service, garage","91200","91027","Athis-Mons","2.37146480309276","48.7028170326821"
"IDF9100100","Mitterrand, 72-74 avenue François","OPEL, ex BIDAUD PERE ET FILS","Station service, garage","91200","91027","Athis-Mons","2.37236194147833","48.7034642311082"
"IDF9100101","Mitterrand, 87 avenue François","ATHIS-STATION","Station service","91200","91027","Athis-Mons","2.37120823615574","48.7051192317682"
"IDF9100102","Mitterrand, 105 avenue François","RENAULT, ex HEINISCH","Garage","91200","91027","Athis-Mons","2.37111407640632","48.7065131230555"
"IDF9100103","Mitterrand, 142 avenue François","CTA","Fonderie","91200","91027","Athis-Mons","2.37188956014257","48.7079786942255"
"IDF9100104","Mitterrand, 162-164 avenue François","RABONI, ex GIRAUD SAVIGNAC",NULL,"91200","91027","Athis-Mons","2.37175471890263","48.7094715180325"
"IDF9100105","Mitterrand, 172-174 avenue François","ATHIS CARS","Transports","91200","91027","Athis-Mons","2.37232590476587","48.7101727714713"
"IDF9100093","Floréal, 8 rue","SAVIGNY-CHAUFFAGE, ex PEGORIER Albert",NULL,"91200","91027","Athis-Mons","2.37362343632865","48.7006851015738"
"IDF9100094","Floréal, 16-18 rue","GA 5",NULL,"91200","91027","Athis-Mons","2.37256394476309","48.7009372300278"
"IDF9100106","Mitterrand, 180 avenue François","CARREFOUR FRANCE, ex EUROMARCHE, ex GROUPEMENT D'INTERET ECONOMIQUE ""GRANDES SURFACES REGION PARISIENNE"" (GIE EUROMARCHE)","Station service","91200","91027","Athis-Mons","2.37197354177198","48.7115037945614"
"IDF9100109","Forge, 7-9 chemin de la","FORGES ET LAMINOIRS D'ATHIS-MONS, ex CHEVET, ex BAUDRY, ex BUNN, ex CHODRON","Forge","91200","91027","Athis-Mons","2.38726516651443","48.7025503958221"
"IDF9100110","Forge, 7-9 chemin de la","HLM LA SABLIERE, ex CHALVENT","Centrale de chauffage","91200","91027","Athis-Mons","2.38781044988331","48.7043666732608"
"IDF9100114","Quai de l'Industrie, 3 impasse du","TURCO FRANCE",NULL,"91200","91027","Athis-Mons","2.3979701819444","48.7019156997444"
"IDF9100107","Flammarion, rue Camille","LEZER ATHIS EUROPRESSING","Pressing","91200","91027","Athis-Mons","2.37288403935476","48.7116024323687"
"IDF9100111","Fosse Popine, 3 rue","MISSENARD",NULL,"91200","91027","Athis-Mons","2.36234963488385","48.7050046271989"
"IDF9100112","Fournier, 45 rue Georges","LINDQVIST INTERNATIONAL",NULL,"91200","91027","Athis-Mons","2.36699605195047","48.704616822145"
"IDF9100019","Paris, avenue de","FONDERIE DERIAUX ET CIE","Fonderie","91670","91016","Angerville","2.00622848484082","48.3179985566054"
"IDF9100017","Paris, 11 avenue de (ex n°7 - ex RN 20)","CCF (COMPTOIR CONTINENTAL FRANCAIS)","Fabrique de matières plastiques","91670","91016","Angerville","2.00324173344508","48.3150222996246"
"IDF9100196","RD de Corbeil à Etampes","DULUAT Auguste","Papeterie","91610","91045","Ballancourt-sur-Essonne","2.36678412563846","48.5304751708463"
"IDF9100198","RN 74 (route d'Itteville)","RODANET","Industrie chimique","91610","91045","Ballancourt-sur-Essonne","2.36238006181435","48.5229405029525"
"IDF9100199","Ecoles, rue des (D 74, ex CGC n°74)","COMPAGNIE CONTINENTALE DU GAZ","Gazomètre","91610","91045","Ballancourt-sur-Essonne","2.37682525966781","48.5241143983919"
"IDF9100227","Hommeries, lieudit les","CHAMEREAU",NULL,"91570","91064","Bièvres","2.20758987411516","48.7548520245934"
"IDF9100219","RN 191","MODU-INTERMARCHE","Station service","91590","91047","Baulne","2.3534478536749","48.4885638249888"
"IDF9100222",NULL,"ENGINEERING-CONTROL-WELDING (ECW)",NULL,"91570","91064","Bièvres","2.2279029266265","48.7698911354722"
"IDF9100226","Porte Jaune, chemin de la","LABORATOIRE CENTRAL DE LA PREFECTURE DE PARIS (LCPP)",NULL,"91570","91064","Bièvres","2.22145854950103","48.7681222024665"
"IDF9100232","Martinière, 34 chemin latéral de la","ITECMA + EREA + PRESTI CLIM, ex THERECO + VAPAD + ITECMA - DISPROCHIM + LUBRICOUPE + ENTREPÔTS DU SUD - OUEST PARISIEN, ex BRASSERIE RABAUD.",NULL,"91570","91064","Bièvres","2.20545760559274","48.7537254910967"
"IDF9100233","RN 118, Lieudit Le Chat  Blanc","GESMIN, ex BP",NULL,"91570","91064","Bièvres","2.19683772500011","48.7480048308916"
"IDF9100234","Plaine de Fabreuse, lieudit la","ESSO SAF, ex ESSO STANDARD","Station service","91570","91064","Bièvres","2.19643432129765","48.7463946394258"
"IDF9100235","Paris, 82 rue de","BERTHE Robert et Cie, ex BERTHE, ex LAMIRAND Louis",NULL,"91570","91064","Bièvres","2.22851209849669","48.7650446500137"
"IDF9100237","Paris, 127 rue de","RENAULT - MOTEURS",NULL,"91570","91064","Bièvres","2.22778068483306","48.7698010911127"
"IDF9100021","Paris, 19-21 avenue de","MORNAS ROBERT","Coopérative agricole","91670","91016","Angerville","2.00556032228924","48.3170973646194"
"IDF9100022","Paris, 60 avenue de","ELASTOMER ITC","Fabrique de matières plastiques et de verre","91670","91016","Angerville","2.00735739247019","48.3206006406433"
"IDF9100032","Brossolette, 12 boulevard Pierre","CLINIQUE DES CHARMILLES","Clinique","91290","91021","Arpajon","2.2490853103536","48.5928801244868"
"IDF9100037","Cornaton, 11 boulevard Abel  (ex boulevard Anatole France)","DESCHAMPS ARPAJON, ex DESCHAMPS, ex BOUDARD Pierre","Garage","91290","91021","Arpajon","2.24852561981419","48.5874301818713"
"IDF9100038","Cornaton, 18 boulevard Abel  (ex boulevard Anatole France)","SCR (SOCIETE CHIMIQUE DE LA ROUTE), ex LASSAILLY-BICHEBOIS, ex SALMAR","Travaux publics","91290","91021","Arpajon","2.25015367482257","48.5865771462324"
"IDF9100040","Gare, boulevard de la","ARPAJON, commune d', ex GAZ GENERAL DE PARIS","Usine à gaz","91290","91021","Arpajon","2.24076199067043","48.5857512331556"
"IDF9100044","Grande Rue, 93","FISSON M.","Blanchisserie, teinturerie","91290","91021","Arpajon","2.24859178315293","48.5883384844755"
"IDF9100043","Grande Rue, 71","Maison de Retraite - Hospice","Hospice","91290","91021","Arpajon","2.24910477968604","48.5895259047868"
"IDF9100045","Grande Rue, 94","FISSON M.","Blanchisserie, teinturerie","91290","91021","Arpajon","2.24743449042813","48.5911882251343"
"IDF9100046","Grande Rue, 95","ICA (IMPRIMERIE COOPERATIVE ARPAJONNAISE), ex IMPRIMERIE ET JOURNAL LA GAZETTE DE SEINE ET OISE","Imprimerie","91290","91021","Arpajon","2.24840226919654","48.5881944550892"
"IDF9100047","Grande Rue, 113","MOBIL, ex AUCLERE Romain, ex LUX Marcel","Station service","91290","91021","Arpajon","2.24708987285337","48.5868445336763"
"IDF9100048","Grande Rue, 117","GARAGE EMLYNE CARS","Garage","91290","91021","Arpajon","2.2463452054402","48.586385318559"
"IDF9100049","Grande Rue, 124","BLANCHISSERIE ARPAJONNAISE","Blanchisserie, teinturerie","91290","91021","Arpajon","2.24791380966122","48.5884638495907"
"IDF9100050","Hoche, 20 avenue","ELF FRANCE, ex ELF DISTRIBUTION","Station service","91290","91021","Arpajon","2.25501404530698","48.5900429127464"
"IDF9100053","Lemoine, 5 rue Jules","CALORSTAT INDUSTRIES, ex EDGAR FRANK","Fabrique de thermostats","91290","91021","Arpajon","2.24464583780696","48.5891176916992"
"IDF9100054","Lemoine, 25 rue Jules  (ex n°6 ?)","MOREL MAURICE","Fabrique de colle","91290","91021","Arpajon","2.24213794108131","48.5892145383763"
"IDF9100051","Jaurès, 19 boulevard Jean","MATIERE PLASTIQUE, ex CHAUSSURES ANDRE","Fabrique de chaussures","91290","91021","Arpajon","2.24623321818534","48.5883366195341"
"IDF9100052","Jaurès, 24 boulevard Jean","CALORSTAT, ex ERAR (ETUDES ET REALISATIONS D'APPAREILS DE REGULATION)","Fabrique de pièces mécaniques","91290","91021","Arpajon","2.24592306339851","48.5874550974059"
"IDF9100177","Leclerc, avenue de la Division","MOBIL OIL FRANCAISE","Station service","91160","91044","Ballainvilliers","2.28141938251724","48.6756506819876"
"IDF9100178","Leclerc, avenue de la Division","BENNES-EXPRESS",NULL,"91160","91044","Ballainvilliers","2.28346448585115","48.6805526608818"
"IDF9100179","Leclerc, avenue de la Division","ELF DISTRIBUTION","Station service","91160","91044","Ballainvilliers","2.28228656775692","48.6773327293653"
"IDF9100180","Leclerc, avenue de la Division","BP-GESMIN, ex FRANCAISE DES PETROLES BP","Station service","91160","91044","Ballainvilliers","2.28005533100334","48.669193284605"
"IDF9100181","Leclerc, avenue de la Division","SHELL BERRE","Station service","91160","91044","Ballainvilliers","2.28281695867128","48.6765955869627"
"IDF9100183","Leclerc, avenue de la Division","TOTAL RAFFINAGE DISTRIBUTION, ex TOTAL CIE FRANCAISE DE DISTRIBUTION, ex TOTAL","Station service","91160","91044","Ballainvilliers","2.28219183103432","48.6770449188012"
"IDF9100184","Leclerc, avenue de la Division","ESSO STANDARD, ex DOUAZE Jacques","Station service","91160","91044","Ballainvilliers","2.28098913046791","48.6718645656245"
"IDF9100185","Leclerc, 19 avenue de la Division","TONACHELLA Henri",NULL,"91160","91044","Ballainvilliers","2.27961835725184","48.6713692843072"
"IDF9100186","Leclerc, 206 avenue de la Division","BATI PEINTURES SOLEMURS, ex ROCHET",NULL,"91160","91044","Ballainvilliers","2.2809665366729","48.6678178643361"
"IDF9100187","Leclerc, 212 avenue de la Division","SEMIP",NULL,"91160","91044","Ballainvilliers","2.28062486894033","48.6698050691993"
"IDF9100380","Mouchotte, avenue du commandant","THERMICAL","Compagnie de chauffage","91220","91103","Brétigny-sur-Orge","2.31362018947453","48.606157947609"
"IDF9100188","Longjumeau, rue de","SIRTI + ELIS, ex EXA",NULL,"91160","91044","Ballainvilliers","2.2869534209943","48.6816783371233"
"IDF9100370","Gaulle, 32 avenue du Général de (ex CR N°1)","VETILLE AUTOMOBILES (en 1987), ex GARAGE BOISSET","Station service","91220","91103","Brétigny-sur-Orge","2.31943643780239","48.6087218963564"
"IDF9100372","Halliers, 102 rue des","HLM LA SABLIERE","HLM","91220","91103","Brétigny-sur-Orge","2.303541254023","48.6120815284565"
"IDF9100373","Jaurès, 7 bis rue Jean","DANY PRESS, ex JACKY PRESS (en 1985), ex RUAUX (en 1966)","Blanchisserie, teinturerie","91220","91103","Brétigny-sur-Orge","2.30971407209103","48.6077757361982"
"IDF9100167","Aunette, 2 chemin d'","LOREMAT","Garage","91160","91044","Ballainvilliers","2.30058079264361","48.6731135472155"
"IDF9100168","Aunette, 12 chemin d'","MALGUY",NULL,"91160","91044","Ballainvilliers","2.30260254325074","48.6750925624848"
"IDF9100172","Grande Route de la Chasse, CR 19","LA FELLETINOISE",NULL,"91160","91044","Ballainvilliers","2.28187473043556","48.6691132505087"
"IDF9100176","Leclerc, avenue de la Division","VANETTA",NULL,"91160","91044","Ballainvilliers","2.28178513814702","48.6764332212294"
"IDF9100482","Trou d'Arny, à proximité du lieu-dit le","DELACROIX Christian","Décharge de déchets industriels banals","91680","91115","Bruyères-le-Châtel","2.16522136038705","48.5864802798063"
"IDF9100484","Arpenty, hameau d' (CR N°11 ou 12)","BRUYERES-LE-CHATEL, commune de","Dépôt d'immondices","91680","91115","Bruyères-le-Châtel","2.16496302033432","48.5867136958695"
"IDF9100486","Arpenty, hameau d'","SARU (Sté AUXILLIAIRE DE RESIDUS URBAINS)","Décharge d'ordures ménagères","91680","91115","Bruyères-le-Châtel","2.16600825719912","48.5862656463944"
"IDF9100487","D 116 ou D 117. Usine de Tremerolle","BRUN FERRINO","Atelier de menuiserie","91680","91115","Bruyères-le-Châtel","2.17047122341708","48.5811375145191"
"IDF9100170","Ecoles, rue des","TILT, ex ATELIERS GASTON DEBORD",NULL,"91160","91044","Ballainvilliers","2.29035471338886","48.6750701913362"
"IDF9100171","Ecoles, 8 rue des","AUTONOME D'USINAGE (SAU)",NULL,"91160","91044","Ballainvilliers","2.28962184118444","48.6746832032548"
"IDF9100174","Leclerc, 13 rue du Général (anc. n°38)","EDITIONS DU SEUIL",NULL,"91160","91044","Ballainvilliers","2.2977028534811","48.6723572017618"
"IDF9100398","Paris, 25 avenue de la commune de, ex route de Vert-Le-Grand","Sté GARAGE DE LA MOINERIE","Garage","91220","91103","Brétigny-sur-Orge","2.30383740528155","48.5950766240551"
"IDF9100395","Saussaie, 6 chemin de la (ex rue Jean Rongière)","CDI (COMPAGNIE DIFFUSION INTERNATIONALE) + DYNAMIC SPRAY, ex LIOTE SERIGRAPHIE","Fabrique de caoutchouc","91220","91103","Brétigny-sur-Orge","2.29649155070203","48.5927001855479"
"IDF9100396","CV n°5 de Brétigny à Leuville","BRETIGNY-SUR-ORGE, commune de","Décharge d'ordures ménagères","91220","91103","Brétigny-sur-Orge","2.28269321160408","48.6158683151684"
"IDF9100400","Port Sud, centre commercial de","STOC, ex  LA PARISIENNE",NULL,"91650","91105","Breuillet","2.19122310079478","48.5757615455587"
"IDF9100412","Buisson Rondeau, ZA du; Supermarché STOC (ex rue de la tuilerie, ex route de follerie)","COMPTOIRS - MODERNES - UNION COMMERCIALE","Station service","91650","91105","Breuillet","2.1626420270864","48.5682123901722"
"IDF9100413","Buisson Rondeau, ZA du  (ex rue de la Tuilerie, ex route de Folleville)","V-TRANS, ex TRANSPORT RABOUIN","Transports","91650","91105","Breuillet","2.16124516399493","48.5685699369878"
"IDF9100477","Pyramides, 2 place des (devenue la Pyramide)","GARAGE POISSON, ex LES CARS DE BRUNOY, ex BAILLERGEAU","Garage","91800","91114","Brunoy","2.49038156571542","48.6843291256369"
"IDF9100403","Buttes-Réault, 104 rue des","BREUILLET PRESSING, ex BENET","Pressing","91650","91105","Breuillet","2.18478370502192","48.5765444309695"
"IDF9100404","Buttes-Réault, 256 rue des","TPEE","Fabrique de matières plastiques","91650","91105","Breuillet","2.16922866700857","48.5717833903142"
"IDF9100408","Gare, 4 rue de la (RD 26)","GILBERT Bernard, ex FABRE Germain, ex KAZMIERZAK","Garage","91650","91105","Breuillet","2.17023869080142","48.5655440285048"
"IDF9100410","Ecoles, 66 rue des,  la Badaudière (ex résidence des Hauts de la Badaudière)","HLM, Sté d'  (Le Foyer pour tous)","HLM","91650","91105","Breuillet","2.17542910490804","48.5735459489215"
"IDF9100377","Maison neuve, la","AUCHAN, ex Sté DES MAGASINS ECONOMIQUES DE BRETIGNY et de sa filiale GROUPATIM","Garage, carrosserie","91220","91103","Brétigny-sur-Orge","2.30454730295421","48.5875140694757"
"IDF9100379","Moinerie II, ZI de la - parcelle A2","BI (BRETIN INDUSTRIES), filiale de SPECIMECA, appartenant au groupe DYNACTION.","Atelier de mécanique","91220","91103","Brétigny-sur-Orge","2.3053173759739","48.5915069938222"
"IDF9100115","Industrie, 9 quai de l'","ERTEC, ex RADULOVIC Stépanov Danica, ex COLAS DES FRANCS","Carrosserie","91200","91027","Athis-Mons","2.38955147553667","48.6932779327459"
"IDF9100116","Industrie, 11 quai de l'","LAURENT et Cie, ex REOL FRERES, ex PELLE",NULL,"91200","91027","Athis-Mons","2.39001369501072","48.693637425676"
"IDF9100117","Industrie, 13 quai de l'","ATHIS PIECES AUTOS, ex AUTO-PIECES ILE DE FRANCE, ex MOUREAU, ex PAYEN-AVIATION, ex TUBES DE JUVISY, ex BRATU",NULL,"91200","91027","Athis-Mons","2.39001438026854","48.6942848968864"
"IDF9100118","Industrie, 15 quai de l'","GARNIFER, ex SAFEM, ex ERTEC, ex SCMR",NULL,"91200","91027","Athis-Mons","2.38962139567478","48.6951843445483"
"IDF9100119","Industrie, 17 quai de l'","SANDERS Louis, ex ANCIENNE MAISON LOUIS SANDERS","Fabrique d'aliments pour animaux","91200","91027","Athis-Mons","2.39005644604616","48.6955258645428"
"IDF9100121","Industrie, 29 quai de l'","COMPTOIRS DES PARFUMS, ex MASSEY FERGUSON, ex DESMARAIS FRERES",NULL,"91200","91027","Athis-Mons","2.39307423202696","48.6974128826678"
"IDF9100122","Industrie, 29 bis quai de l'","SANITRA, ex TRAPIL",NULL,"91200","91027","Athis-Mons","2.39359064065321","48.6975834886839"
"IDF9100123","Industrie, 31-33 quai de l'","PROFIL ARBED, ex NORBERT - DENTRESSANGLE, ex COMPAGNIE FRANCAISE DES METAUX, ex AFFINERIE DE JUVISY, ex CHAMPION, ex FABRICATION DES ESSENCES ET DES PETROLES, ex ARDOISERIES D'ANGERS",NULL,"91200","91027","Athis-Mons","2.39433908449969","48.6987071984482"
"IDF9100124","Industrie, 37-39 quai de l'","FRADENA, ex TAPIAU et Cie, ex ROL, ex LISTER et Cie, ex ACAM, ex CASSE AUTO, ex T2N, ex FRANCAISE DES FERRAILLES, ex AFFICUIVRE, ex APROMETAL, ex PULFER","Casse automobile","91200","91027","Athis-Mons","2.39637868606482","48.7002708802486"
"IDF9100126","Morangis, 37 avenue de","VIELCANET, ex RICHARD Maurice","Carrosserie","91200","91027","Athis-Mons","2.36808354631887","48.7055337843749"
"IDF9100132","Orge, 17 quai de l'","ENTREPOT D'ATHIS - MONS, ex BRC (Béton Rationnel Contrôle)","Entrepôt de matériaux de construction","91200","91027","Athis-Mons","2.39933263014315","48.7050174345102"
"IDF9100127","Morangis, 30-38 avenue de","BP FRANCE, ex MOBIL-OIL-FRANCAISE, ex MOBIL-OIL","Station service","91200","91027","Athis-Mons","2.36887184522119","48.7059472305612"
"IDF9100128","Morangis, 53 avenue de","ROSA PRESSING, ex BREGEGERE Jacques","Pressing","91200","91027","Athis-Mons","2.36687423788312","48.7053992158142"
"IDF9100129","Morangis, 55 avenue de","ESSO SAF, ex ESSO STANDARD","Station service","91200","91027","Athis-Mons","2.36612696402486","48.7053994080107"
"IDF9100131","Orainville, avenue d'","SEMAM, ex FERBETON",NULL,"91200","91027","Athis-Mons","2.38851862138128","48.6927838066865"
"IDF9100140","Sembat, avenue Marcel","ELF","Station service","91200","91027","Athis-Mons","2.37235035684777","48.7063059169583"
"IDF9100141","Sumien, 3 avenue Paul","DAP, ex SDM, ex ASTIER, ex ASTIER Justine","Garage","91200","91027","Athis-Mons","2.35812351456713","48.7034317653467"
"IDF9100925","Barbusse, 70 avenue Henri","RAFFINAGE DISTRIBUTION, ex Cie FRANCAISE DE RAFFINAGE (TOTAL)",NULL,"91210","91201","Draveil","2.41123302290865","48.6765035868706"
"IDF9100922","Barbusse, 46 Bd Henri (N448)","FLOTTAISON - SYSTEME + INTERNATIONALE ALUMINIUM + GDDAT, ex FRANCE ROUTE PUBLICITE (SFRP)",NULL,"91210","91201","Draveil","2.41265431022057","48.6735260861874"
"IDF9100923","Barbusse, 50 Bd Henri (N448)","POUVREAU","Garage","91210","91201","Draveil","2.41239688148835","48.6738949552066"
"IDF9100924","Barbusse, 65 Bd Henri","ELF FRANCE, ex SOLYDIT UNION","Station service","91210","91201","Draveil","2.41155586272924","48.6744530520941"
"IDF9100926","Barbusse, 74 Bd henri (N 448)","BOIROT, ex ROUSSEAU Julien, ex METALLURGIQUE GENERALE DE DRAVEIL (Sté)",NULL,"91210","91201","Draveil","2.41127437357788","48.6769172219223"
"IDF9100151","Zola, 15 avenue Emile","LEDOUX","Teinturerie","91200","91027","Athis-Mons","2.38393282676946","48.698532091371"
"IDF9100574","Arago, avenue","AERO 92, ex NIC, ex VERANO","Fabrication d'éléments en métal pour la construction","91380","91161","Chilly-Mazarin","2.3021854050657","48.7083652668161"
"IDF9100575","Arago, avenue","DELAU",NULL,"91380","91161","Chilly-Mazarin","2.30085316397803","48.7092641158198"
"IDF9100576","Arago, 8 avenue","PETIT FORESTIER",NULL,"91380","91161","Chilly-Mazarin","2.30069072900698","48.70841875305"
"IDF9100577","Arago, 20 avenue","AVERY, ex FONTAINE Pierre","Fabrique d'étiquettes","91380","91161","Chilly-Mazarin","2.30232062030055","48.7093095384489"
"IDF9100578","Arago, 21 avenue","PRESSES HULOT+ ISOLONG",NULL,"91380","91161","Chilly-Mazarin","2.30191539103423","48.705910185398"
"IDF9100582","Brossolette, avenue Pierre","TOP PRESSING + MADIS ex PRIMISTERES","Pressing","91380","91161","Chilly-Mazarin","2.31905054049499","48.7003657363213"
"IDF9100583","Brosselette, 1 avenue Pierre","SANOFI-SYNTHELABO, ex SYNTHELABO OTC, ex SYNTHELABO RECHERCHE, ex LABORATOIRES DELAGRANGE, ex ETUDES SCIENTIFIQUES ET INDUSTRIELLES DE L'ILE DE FRANCE, ex LABO DELAGRANDE","Laboratoire","91380","91161","Chilly-Mazarin","2.30273463057252","48.7000921827611"
"IDF9100584","Brossolette, 2 avenue Pierre","ELF ANTAR FRANCE, ex ELF FRANCE, ex LEGENDRE","Station service","91380","91161","Chilly-Mazarin","2.30311621330807","48.6983477213063"
"IDF9100585","Brossolette, 5 avenue Pierre","PRESSES DE CHILLY, ex IMPRIMERIE DELAVAUX","Imprimerie","91380","91161","Chilly-Mazarin","2.30462261238604","48.7006772621489"
"IDF9100586","Brossolette, 7 avenue Pierre","ESSO - SERVICE, ex ESSO, ex ESSO - STANDARD","Station service","91380","91161","Chilly-Mazarin","2.31820807606711","48.7008062391735"
"IDF9100587","Brossolette, 10-12 avenue Pierre","BP FRANCE, ex MOBIL OIL FRANCAISE, ex MOBIL OIL","Station service","91380","91161","Chilly-Mazarin","2.30375454561293","48.6985817199686"
"IDF9100588","Brossolette, 32 avenue Pierre","TOTAL RAFFINAGE DISTRIBUTION, ex CIE FRANCAISE DE RAFFINAGE","Station service","91380","91161","Chilly-Mazarin","2.32019125579324","48.7017148120429"
"IDF9100594","Arago et Gay Lussac, 8 avenue, le parc de l'étoile","DETECTION ELECTRONIQUE FRANCAISE, ex MERCEDES - BENZ - FRANCE",NULL,"91380","91161","Chilly-Mazarin","2.30082634268357","48.708778503186"
"IDF9100801","Bois de l'Epine, 1 av. du","NICOLITCH","Fabrique de circuits imprimés","91080","91182","Courcouronnes","2.40545016738394","48.6281448191456"
"IDF9100803","Bois de l'Epine, 5 av. du","FORGOS","Fabrique de matériels électriques","91080","91182","Courcouronnes","2.40707978387733","48.6293758176567"
"IDF9100804","Bois de l'Epine, 2-6 av. du","LEGAVE ET PASQUIER",NULL,"91080","91182","Courcouronnes","2.40694092177119","48.6270827859453"
"IDF9100805","Bois de l'Epine, 12 av. du","MAN CAMIONS ET BUS, ex KICKERS (chaussures)","Garage","91080","91182","Courcouronnes","2.40873432165125","48.6290060914836"
"IDF9100806","Brévent, 4 allée de","TECHNIQUES SURFACES - Filiale HEF","Atelier de traitement des métaux","91080","91182","Courcouronnes","2.42843279186115","48.6144779138936"
"IDF9100807","Champs Elysées, Allée des (D92)","FERAY (Sté NOUVELLE DU GRAND GARAGE FERAY)","Garage","91080","91182","Courcouronnes","2.42410511031874","48.6292831455661"
"IDF9100808","Châtre, Chemin de la","COURCOURONNES, COMMUNE DE","Décharge d'ordures ménagères","91080","91182","Courcouronnes","2.4174473167375","48.6143603041879"
"IDF9100809","Chartreuse, 1 allée de la (Bât. L)","DELPHIA LABORATOIRE, ex LABORATOIRE WOLFF ou WOLFF ENVIRONNEMENT","Industrie chimique","91080","91182","Courcouronnes","2.42769941446055","48.6139119659593"
"IDF9100707","Jaurès, Bd Jean","GARAGE AUTOMOBILE CORBEIL - ESSONNES (GACE)","Garage","91100","91174","Corbeil-Essonnes","2.45504684913388","48.6167015880205"
"IDF9100709","Jaurès, 10-12 Bd Jean","SPEEDY, ex SHELL FRANCAISE, ex Sté DES PETROLES SHELL BERRE","Garage","91100","91174","Corbeil-Essonnes","2.46660159810183","48.6059698276246"
"IDF9100710","Jaurès, 13 Bd Jean (RN 7)","ATELIERS DE CONSTRUCTION DE CHANTEREINE, ex Sté DES CHEMINEES LOUIS PRAT","Fabrique de ventilateurs","91100","91174","Corbeil-Essonnes","2.46528239597506","48.6077722136628"
"IDF9100711","Jaurès, 16-18 Bd Jean (RN 7)","PETROLES SHELL, ex SHELL BERRE, ex KIMMEL Gustave et CASATI César","Station service","91100","91174","Corbeil-Essonnes","2.46608797439312","48.6066088864463"
"IDF9100712","Jaurès, 51 Bd Jean (RN 7, ex n°47)","GONCALVES","Fabrique de mobiliers","91100","91174","Corbeil-Essonnes","2.46406397179812","48.6084027655222"
"IDF9100713","Jaurès, 53 Bd Jean (RN 7, et/ou n°49 en 1973)","GEC (ELLIOT AUTOMATION - Division HOUDEC), ex Sté HOUDEC, ex CARTOUCHERIE FRANCAISE","Fabrique d'appareils de mesure","91100","91174","Corbeil-Essonnes","2.46419864825186","48.6080430545704"
"IDF9100714","Jaurès, 54-56 Bd Jean (ex N° 16-18 à priori, car même plan de masse, en 1971)","A2I Graphic, ex MOBIL OIL FRANCAISE","Imprimerie","91100","91174","Corbeil-Essonnes","2.46447194487014","48.608941678299"
"IDF9100715","Jaurès, 69 Bd Jean (RN7, ex N°65 bis en 1949)","COLORINE, ex GARAGE THOMMERET - CORBEIL, ex GARAGE DE LA COTE","Fournitures en peinture et revêtement","91100","91174","Corbeil-Essonnes","2.46284703440888","48.6096625442812"
"IDF9100716","Jaurès, 77 Bd Jean (RN 7)","PRODUITS RATIONNELS D'ALIMENTATION, Sté des",NULL,"91100","91174","Corbeil-Essonnes","2.46298258989455","48.6096624005609"
"IDF9100718","Kennedy, 14 Bd John","ELF DISTRIBUTION","Station service","91100","91174","Corbeil-Essonnes","2.47686000861774","48.589141517594"
"IDF9100719","Kennedy, 29-33 Bd John (en 1975) (ex N° 21-25 en 1969)","DESRUES Michel, ex DESRUES Fernand, ex MERESSE (GARAGE SIMCA)","Garage et station service PEUGEOT, anciennement Desrues, Ex Mairesse","91100","91174","Corbeil-Essonnes","2.47822049787077","48.5909023854697"
"IDF9100720","Kennedy, 101-103 Bd John (RN7)","MARQUET","Commerce d'équipement automobile","91100","91174","Corbeil-Essonnes","2.47726724391324","48.5845098311702"
"IDF9100721","Kennedy, 112-114 Bd John (RN7)","GARAGE EUROPEEN, ex CATTAN Alfred (agence de Fiat - France et Austin)","Garage","91100","91174","Corbeil-Essonnes","2.47560026107367","48.5845658301267"
"IDF9100722","Kennedy, 116 Bd John (ex n°100)","COUSAUX, ex COURSAUX PNEUS, ex COURSAUX Maurice","Commerce d'équipement automobile","91100","91174","Corbeil-Essonnes","2.47599220187182","48.5841606853404"
"IDF9100596","Ile de France, avenue d'","SERC de l'Union Industrielle de Blanzy-Ouest","Centrale de chauffage","91380","91161","Chilly-Mazarin","2.31256167724547","48.6903107226767"
"IDF9100598","Libération, place de la","MAZARIN PRESSING","Pressing","91380","91161","Chilly-Mazarin","2.32036759460085","48.7025331706193"
"IDF9100641","Darblay, 7 avenue de (ex 1 quai de l'Apport Paris)","GMC (GRANDS MOULINS DE CORBEIL), ex SFM (Sté FRANCAISE DE MEUNERIE)",NULL,"91100","91174","Corbeil-Essonnes","2.4781664539996","48.6150026382242"
"IDF9100642","Apport Paris, 9 bis quai de l'","SMC (Sté D'ETUDE CONSTRUCTION MECANIQUE)",NULL,"91100","91174","Corbeil-Essonnes","2.47940048823206","48.615396899494"
"IDF9100643","Apport Paris, 45 quai de l'","CAC (COOPERATIVE AGRICOLE DE CORBEIL), ex PAPETERIE DES TARTARETS",NULL,"91100","91174","Corbeil-Essonnes","2.4747727916452","48.6188016814113"
"IDF9100644","Apport Paris, 78 quai de l'","UNIBETON, ex CICM (COMPTOIR INDUSTRIEL ET COMMERCIAL DE MATERIAUX)","Centrale à béton","91100","91174","Corbeil-Essonnes","2.47369156592659","48.6202058335882"
"IDF9100645","Barbusse, place Henri","SNCF (Sté NATIONALE DES CHEMINS DE FER FRANCAIS)",NULL,"91100","91174","Corbeil-Essonnes","2.47385446353166","48.6152956683682"
"IDF9100650","Bas - Vignons, 18 chemin des","ROUTE PLASTIQUE",NULL,"91100","91174","Corbeil-Essonnes","2.48395168088534","48.5947162076994"
"IDF9100656","Bourgoin, 1 quai Jacques","SEPC (Sté D'EXPLOITATION DU PORT DE CORBEIL)",NULL,"91100","91174","Corbeil-Essonnes","2.48688716880928","48.6105401417362"
"IDF9100657","Bourgoin, 46 quai Jacques","MALACRIDA C.","Fabrique de rectifieuses","91100","91174","Corbeil-Essonnes","2.48765263747715","48.6092740963849"
"IDF9100658","Bourgoin, 58-64 quai Jacques (ex n°32)","PERIODIC BROCHAGE, ex HELIO - CORBEIL, ex NEOGRAVURE, ex CRETE (Sté IMPRIMERIE CRETE)","Atelier de brochage de feuilles imprimées","91100","91174","Corbeil-Essonnes","2.48626938688008","48.6080140292781"
"IDF9100659","Bourgoin, 80 quai Jacques","MONOPRECIS","Fabrique de machines-outils","91100","91174","Corbeil-Essonnes","2.48967675250448","48.6061252982548"
"IDF9100660","Briand, 4 place Aristide","BONIFACIE, ex ALARY, ex OSTY, ex JOURDAIN","Station service","91100","91174","Corbeil-Essonnes","2.47803458570371","48.6116230919524"
"IDF9100661","Briand, 38 allée Aristide","CFI (COMPAGNIE FRANCAISE D'IMPRESSION)","Imprimerie","91100","91174","Corbeil-Essonnes","2.47450527680423","48.6098294003706"
"IDF9100662","Carnot, 82 avenue","SIMACA (Sté INDUSTRIELLE ET COMMERCIALE D'AUTOMOBILES ET DE MATERIEL AGRICOLE)",NULL,"91100","91174","Corbeil-Essonnes","2.48181881081249","48.607483521304"
"IDF9100664","Bourgoin, 54 quai Jacques (ex n°28)","LAITERIE DES BAS VIGNONS","Industrie laitière","91100","91174","Corbeil-Essonnes","2.4753581083592","48.6048444352646"
"IDF9100724","Kennedy, 110 Bd John","ESSONNE - AUTO OCCASION, ex GARAGE MAZIERE","Garage","91100","91174","Corbeil-Essonnes","2.47638648944965","48.5846008397637"
"IDF9100725","Kennedy, 119 Bd John (RN7)","AXIAL EXPRESS, ex LACROIX AUTOMOBILES, ex CORBEIL AUTOS","Garage","91100","91174","Corbeil-Essonnes","2.47715052440553","48.5852856767821"
"IDF9100726","Kennedy, 147-149 Bd John","CABINET BILLY",NULL,"91100","91174","Corbeil-Essonnes","2.47728915477979","48.5864541244166"
"IDF9100727","Kennedy, 163-167 Bd John (RN 7)","ELF - FRANCE, ex ANTAR","Station service","91100","91174","Corbeil-Essonnes","2.47659432695478","48.5813632529832"
"IDF9100691","Feray, 103 rue","Garage HYUNDAI, ex BERNARD J.M","Garage","91100","91174","Corbeil-Essonnes","2.47034142793749","48.6049673279368"
"IDF9100728","Kennedy, 182 Bd John (ex 164 route Nationale, RN7)","IMPERATOR Automobiles, ex DEFRANCE P., ex BALLOFET Georges","Garage","91100","91174","Corbeil-Essonnes","2.47659486407926","48.5801624084106"
"IDF9100670","Briand, allée Aristide (ex allée St Jean, rue d'Ambroise puis rue Croizat)","DIAMON SHAMROCH FRANCE, ex DOITTAU - SOPURA, ex DOITTAU, ex FERAY Ernest et Cie.","Fabrique de produits d'entretien","91100","91174","Corbeil-Essonnes","2.47017041838087","48.6069459018261"
"IDF9100729","Kennedy, 190 Bd john","ESPACE EUROPEEN, ex VACHON Gaston, ex SEILER Maurice","Garage","91100","91174","Corbeil-Essonnes","2.47645626598285","48.5789939546307"
"IDF9100730","Kennedy, 210 Bd John (RN 7)","BLANCHISSERIE St JEAN","Blanchisserie","91100","91174","Corbeil-Essonnes","2.47564317303223","48.5789050137543"
"IDF9100731","Kennedy, 224 Bd John","ALTIS (IBM), ex UPSYS (filiale des stés GAME et IBM) + Sté IBM FRANCE","Fabrique de composants électroniques","91100","91174","Corbeil-Essonnes","2.47520938464608","48.5706278015316"
"IDF9100741","Leclerc, 33 avenue du Général + 2 avenue du Président Carnot","BALKIS, ex GONTARD","Fabrique et conditionnement de crèmes glacées","91100","91174","Corbeil-Essonnes","2.47415653672505","48.6116982588927"
"IDF9100495","Trémerolles, hameau des","BRUN FERRINO, ex Sté DES PLAQUES ET POUDRES A SOUDER","Atelier de menuiserie","91680","91115","Bruyères-le-Châtel","2.1705414168003","48.5804092175361"
"IDF9100738","Lattre de Tassigny, 31 à 43 rue du Maréchal de","SCCE (Sté DE COMBUSTIBLES DE CORBEIL ESSONNES), ex Sté ESSONNAISE D'ETUDE ET d'APPLICATION DE LA CHALEUR","Compagnie de chauffage","91100","91174","Corbeil-Essonnes","2.46945704488122","48.6089520861482"
"IDF9100739","Lattre de Tassigny, 49 rue du Maréchal de","TYPOLINO","Imprimerie","91100","91174","Corbeil-Essonnes","2.46907917555672","48.6083074016771"
"IDF9100740","Lavoisier, 20 et 22 rue (en 1976, ex N°9 en 1956)","FRANCAISE DE LESSIVES (Sté), ex LAFACI (Sté de Fabrication de produits Chimiques), ex PETROCARBONE",NULL,"91100","91174","Corbeil-Essonnes","2.47503300493037","48.6043453888761"
"IDF9100493","Libération, 87 rue de la (D 116)","LEROUSSEAU, ex GIRARD, ex LE MAREC J-P, ex BELAIR","Garage","91680","91115","Bruyères-le-Châtel","2.18513236615847","48.591121890235"
"IDF9100503","Gaulle, rue Charles de","GAZ DE LIMOURS ET EXTENSIONS",NULL,"91440","91122","Bures-sur-Yvette","2.14245979627996","48.6987167784524"
"IDF9100492","Libération, 68 avenue de la (D 116)","EST THOMAZON, ex THOMAZON","Transports en commun","91680","91115","Bruyères-le-Châtel","2.18492741404373","48.5916521789592"
"IDF9100675","Dunant, 25 à 29 Bd Henri (N191, ex n°9-11)","MIGNON et FILS (SMF)","Station de vidange et curage","91100","91174","Corbeil-Essonnes","2.48192701200106","48.6022733652588"
"IDF9100530","RN 20; Bel Air, hameau du","RAVEL Jean-Marie","Station service, garage","91730","91132","Chamarande","2.20681816265709","48.5248826648109"
"IDF9100531","RN 20","SPI AVIA (Sté PETROLIERE D'IMPORTATION ""AVIA"")","Station service, garage","91730","91132","Chamarande","2.20591896371856","48.5218961084024"
"IDF9100676","Dunant, 29 Bd Dunant (N 191, ex N°9 et 11)","SAUTRAF",NULL,"91100","91174","Corbeil-Essonnes","2.48180396869755","48.6019228102534"
"IDF9100677","Dunant, 40 - 42 Bd Henri (N191)","TOTAL, CIE FRANCAISE DE RAFFINAGE","Station service","91100","91174","Corbeil-Essonnes","2.48153723661714","48.6034608852313"
"IDF9100678","Dunant, 59 Bd Henri Dunant (N191, ex °15 en 1985)","ESYS - MONTENAY",NULL,"91100","91174","Corbeil-Essonnes","2.48134221789078","48.5969594793681"
"IDF9100674","Delcourt, impasse","CAPOULADE ETS, ex CAPOULADE Alexis, ex Ent FICHOT",NULL,"91100","91174","Corbeil-Essonnes","2.46409231226107","48.6003432873742"
"IDF9100683","Essonne, quai de l'","BESSON ET LEPEU Antoine","Atelier de serrurerie","91100","91174","Corbeil-Essonnes","2.482882197125","48.6090076095011"
"IDF9100679","Dunant, 62 Bd Henri (N 191)","BP FRANCE, ex BP (Sté FRANCAISES DES PETROLES BP)","Station service","91100","91174","Corbeil-Essonnes","2.48040395031721","48.6007105815988"
"IDF9100680","Dunant, 76 Bd Henri","SHELL - BERRE","Station service","91100","91174","Corbeil-Essonnes","2.47962595156542","48.598676753621"
"IDF9100697","Corbeil, gare de","LUMIERE, Sté LA (Sté Populaire pour l'éclairage et le chauffage à domicile)",NULL,"91100","91174","Corbeil-Essonnes","2.47227419025376","48.6126896991895"
"IDF9100744","Huit Mai 1945, 33-35 avenue du (RN 446)","CITROEN EVRY CORBEIL AUTOMOBILES, ex CORBEIL ESSONNES AUTOMOBILES, ex GRIOLET Marcel","Garage","91100","91174","Corbeil-Essonnes","2.45810931812221","48.6099808908807"
"IDF9100745","Huit Mai 1945, 43 av. du (RN 446)","ESSONNE POIDS LOURDS, ex Sté NOUVELLE DU GRAND GARAGE, ex GRAND GARAGE FERAY","Garage","91100","91174","Corbeil-Essonnes","2.4528755013171","48.6102741021696"
"IDF9100746","Huit Mai 1945, 46 av. du (RN 446)","GRAND GARAGE FERAY (Sté NOUVELLE DU) ,ex GRAND GARAGE FERAY","Station service, garage","91100","91174","Corbeil-Essonnes","2.45209229672213","48.6117227065771"
"IDF9100747","Huit Mai 1945, 48 av. du (RN 446)","AUTO PIECE SERVICE","Fabrique de pièces pour automobiles","91100","91174","Corbeil-Essonnes","2.45074940012127","48.6115801744868"
"IDF9100692","Fontainebleau, 7 Bd de (RN7)","MICA (Sté CIVILE IMMOBILIERE)","Garage","91100","91174","Corbeil-Essonnes","2.47190026926393","48.5997497799888"
"IDF9100696","Freud, rue Sigmund (ex voie 81)","COMPAGNIE DES PETROLES ET GENERALE DE SERVICES, ex ELF FRANCE","Station service","91100","91174","Corbeil-Essonnes","2.44901439567077","48.6068897534242"
"IDF9100693","Fontainbleau, 33-35 Bd de (RN 7, ex 21 Bd de Fontainebleau)","VOLKSWAGEN V.A.G, ex FRANCE EUROPE AUTOMOBILE, ex GARAGE AUTOMOBILE CARNOT (SAGAC)","Garage","91100","91174","Corbeil-Essonnes","2.47325642220132","48.5987741276875"
"IDF9100694","Fontainbleau, 40 Bd de (RN 7)","DARDE Diffusion, ex SUPERMARCHE DE LA PIECE AUTOMOBILE, ex PIANEGONDA Marius, ex TAREL FRERES","Commerce de pièces automobiles","91100","91174","Corbeil-Essonnes","2.472654573242","48.5979233850442"
"IDF9100748","Minerva, 5 impasse","MINERVA TL, ex GIMENEZ, ex Sté NOUVELLE DES ISOLANTS ET BOUGIES POGNON",NULL,"91100","91174","Corbeil-Essonnes","2.46946838601959","48.6029899742774"
"IDF9100616","Mazarin, 6 avenue","CFR TOTAL","Station service","91380","91161","Chilly-Mazarin","2.31960655214508","48.703171534512"
"IDF9100617","Mazarin, 36 avenue de, Résidence ""Bel Abord""","SOPAREC, ex EXPLOITATION DE CHAUFFAGE, ex KISTER ET CETAH, ex KISTER, ex MAUGEIN Charles",NULL,"91380","91161","Chilly-Mazarin","2.31912910104636","48.708504110109"
"IDF9100622","Parc, avenue du","DEUX CHIENS, Collège les","Collège","91380","91161","Chilly-Mazarin","2.30899509096555","48.7043114664112"
"IDF9100532","CR N°2 dit Bois Ferrand","THERMOPLASTES ""X"", ex DRESCHMOTEUR","Fabrique de chaussures","91730","91132","Chamarande","2.20768269514415","48.5256120502215"
"IDF9100541","Chemin blanc, rue du","EXLOG SAMEGA SNC, ex SAMEGA",NULL,"91160","91136","Champlan","2.29192899371526","48.7059066504271"
"IDF9100609","Mares Juliennes, rue des","POMONA Surgelés",NULL,"91380","91161","Chilly-Mazarin","2.31657195421666","48.7149514184875"
"IDF9100610","Mares Juliennes, rue des","STP, ex SOTRAB",NULL,"91380","91161","Chilly-Mazarin","2.31806656376323","48.7155362033071"
"IDF9100611","Mares Juliennes, rue des","DIAPAR",NULL,"91380","91161","Chilly-Mazarin","2.31267247807465","48.7135657733501"
"IDF9100612","Mares Juliennes, rue des","SITA Ile de France, ex DEXEL",NULL,"91380","91161","Chilly-Mazarin","2.31021215380567","48.7148781461983"
"IDF9100619","Mouthon, 2 rue François","LABORATOIRE DE L'HEPATROL","Laboratoire","91380","91161","Chilly-Mazarin","2.31358912659881","48.7005176088054"
"IDF9100620","Mouthon, 42 rue François","LABORATOIRE D'ANALYSES MEDICALES, ex LE HOUARNER","Laboratoire","91380","91161","Chilly-Mazarin","2.31710641011203","48.7038725479999"
"IDF9100533","Beauvais, côte de (en bordure de la rue du télégraphe)","CHAMPCUEIL, commune de","Décharge d'ordures ménagères","91750","91135","Champcueil","2.43658667670786","48.5069200737575"
"IDF9100534","Hôpital Georges Clémenceau","HOPITAL GEORGES CLEMENCEAU","Hôpital","91750","91135","Champcueil","2.43163255426272","48.5207098258995"
"IDF9100535","Hôpital, carrefour de l' (D153)","GARAGE DE CHAMPCUEIL","Station service, garage","91750","91135","Champcueil","2.43715845419288","48.5221798648404"
"IDF9100537","Noisement, côte de (en bordure du C.V N°6 ou du chemin de la Beauce)","CHAMPCUEIL, commune de","Décharge d'ordures ménagères","91750","91135","Champcueil","2.45930871848976","48.5014574201749"
"IDF9100538","Moulin de la bretèche sur la rivière l'Yvette","PAPETERIE DE LA BRETECHE, ex Papetrie HACHETTE ET CIE","Papeterie","91160","91136","Champlan","2.2613845630443","48.706555858682"
"IDF9100539",NULL,"CHAMPLAN, DOM de la commune de","Décharge d'ordures ménagères","91160","91136","Champlan","2.27170134880826","48.7033878518126"
"IDF9100545","Mancelle, ruelle","CHAMPLAN, DOM de la commune de","Décharge d'ordures ménagères","91160","91136","Champlan","2.27755902179936","48.7017184366241"
"IDF9100546","Mancelle, ruelle","AFACEL","Fabrique de composants électroniques","91160","91136","Champlan","2.28666267876776","48.7005627902128"
"IDF9100547","Massy, chemin de","MOTTAIS",NULL,"91160","91136","Champlan","2.27050660650047","48.7129103952051"
"IDF9100549","Moulin par le bas, chemin du","SEFIC-ROCCHIA",NULL,"91160","91136","Champlan","2.26426647681652","48.7055685483179"
"IDF9100550","Moulin par le bas, 6 chemin du","LUCAS AEROSPACE, ex MESSIER -AUTO- INDUSTRIE",NULL,"91160","91136","Champlan","2.26316556905135","48.705819632238"
"IDF9100551",NULL,"SHELL - RVI, ex SHELL FRANCAISE","Station service","91160","91136","Champlan","2.26244012320537","48.7093802554906"
"IDF9100552",NULL,"SEVB","Centrale d'enrobage","91160","91136","Champlan","2.28494024758536","48.7107327185203"
"IDF9100536","Montils, rue des","MARIN Roger","Fabrique de cercueils","91750","91135","Champcueil","2.44833644626606","48.5144448919718"
"IDF9100540","Chemin blanc, rue du","SOPAD","Service annexe à l'agriculture","91160","91136","Champlan","2.28987818622866","48.7050425200811"
"IDF9100542","Chemin blanc, rue du","MOTTAIS Jean","Garage","91160","91136","Champlan","2.2925679741583","48.70546626219"
"IDF9100543","Chemin blanc, rue du","INSTITUT SCIENTIFIQUE D'HYGIENE ALIMENTAIRE",NULL,"91160","91136","Champlan","2.29126279473019","48.706382994778"
"IDF9100544","Jaurès, 27 rue de Jean","NEQUEL",NULL,"91160","91136","Champlan","2.28735445923123","48.7016422150547"
"IDF9100553","Paris, rue de","APAM BIAGI FRERES",NULL,"91160","91136","Champlan","2.2800625614609","48.7102987261139"
"IDF9100554","Paris, rue de","SREID - division chaînes",NULL,"91160","91136","Champlan","2.27416365345737","48.7116085418446"
"IDF9100555","Paris, 31 rue de","NOUVELLE CAILLETTE ET DONY,  ex CAILLETTE ET DONY","Garage","91160","91136","Champlan","2.27841936279951","48.7094795563523"
"IDF9100778","Strathkelvin, av. de (ex avenue du Général De Gaulle)","ELF","Station service","91100","91174","Corbeil-Essonnes","2.46505825317845","48.6175360727627"
"IDF9100753","Autoroute F6 (La francilienne 6).","PETROLES SHELL , ex SHELL FRANCAISE","Station service","91100","91174","Corbeil-Essonnes","2.44615163865664","48.6113598599922"
"IDF9100779","Strathkelvin, av. de","RUIZ Emile","Garage","91100","91174","Corbeil-Essonnes","2.46496953283587","48.6183887226177"
"IDF9100800","Bois de l'Epine, 11 av. du","MICO, ex CREMER - SOCEM, ex LYONNAISE ERELEC - SOCEM, ex SOCEM (Sté de Constructions et d'Etudes Electriques et Mécaniques)","Fabrique de mobiliers","91080","91182","Courcouronnes","2.40585982240015","48.6300959702109"
"IDF9100790","Julienne, chemin de la","MADEJ - CONTINFORM","Imprimerie, fabrique de caoutchouc","91830","91179","Le Coudray-Montceaux","2.47790598168418","48.5658494347134"
"IDF9100795","Plessis-Chenet, hameau du, (RN7)","CARTIER, ex MASSILLON Eugène","Station service, garage","91830","91179","Le Coudray-Montceaux","2.48097381451735","48.5678599281719"
"IDF9100629","Pascal, rue de Blaise (Lot N° 13)","AVERY",NULL,"91380","91161","Chilly-Mazarin","2.29918547314213","48.7045244355468"
"IDF9102030",NULL,"Pétrolière de Technique & d'investissement, ex sté AUXILLAIRE d'ENTREPRISE",NULL,"91470","91338","Limours","2.07897155898863","48.642026392865"
"IDF9103108","Adam, place Adolf","EPFD (Entreprise Parisienne de Fumisterie et de Désinfection), ex MOLLARD",NULL,"91160","91587","Saulx-les-Chartreux","2.27810476001194","48.6883106634828"
"IDF9103109","Adam, place Adolf","EPFD, ex LE MEUBLE EUROPEEN","Fabrique de meubles","91160","91587","Saulx-les-Chartreux","2.27813162606056","48.6885624718351"
"IDF9102029","Gare, 8-10 avenue de la + 3 avenue Roussin","JOINT LE VULCAIN, ex Ateliers de construction MOUZON & CI",NULL,"91470","91338","Limours","2.07399233307211","48.6444429973324"
"IDF9103110","Allende, avenue Salvador","PRADIER, ex DOM de la commune de LONGJUMEAU","Décharge d'ordures ménagères et de DIB","91160","91587","Saulx-les-Chartreux","2.28380225893985","48.694851143237"
"IDF9101361","Cachin, 125 boulevard Marcel","GARAGE TURBO CLG",NULL,"91430","91312","Igny","2.23301633811951","48.7317578973346"
"IDF9103111","Buhoterie, rue de la","TRAPINEX","Imprimerie","91160","91587","Saulx-les-Chartreux","2.26397949494336","48.6881945375902"
"IDF9103123","Leclerc, 3 avenue de l'Armée","COMPAGNIE GENERALE D'ENTREPRISE DE CHAUFFAGE",NULL,"91600","91589","Savigny-sur-Orge","2.33436221114464","48.6847648907357"
"IDF9103127","Bleuets, 40 avenue des","PINTON",NULL,"91600","91589","Savigny-sur-Orge","2.35419189788493","48.6881898620117"
"IDF9103129","Briand, 100 boulevard aristide","GERVAIS",NULL,"91600","91589","Savigny-sur-Orge","2.3572068887621","48.6875958572576"
"IDF9103130","Briand, 8 boulevard Aristide","LENOIR Georges, ex BALEZ",NULL,"91600","91589","Savigny-sur-Orge","2.34313524772148","48.6813475655135"
"IDF9103131","Briand, 10 boulevard Aristide","SARD (Automobile Réparations Dépannage), ex BONNEFOND Paul + JACOMELLI, ex LE GALLOU Albert","Garage","91600","91589","Savigny-sur-Orge","2.34331180632758","48.6814734532982"
"IDF9103133","Briand, 52 boulevard Aristide","MICHAUD, ex GUILBAUD, ex POITEVIN Pierre",NULL,"91600","91589","Savigny-sur-Orge","2.34841892524022","48.6856276702428"
"IDF9103134","Briand, 78 boulevard Aristide","PRESSING EXPRESS","Pressing","91600","91589","Savigny-sur-Orge","2.35362099689806","48.6868140696466"
"IDF9103135","Briand, 113 boulevard Aristide","OURAGAN, ex MAGASINS BERCY","Station service","91600","91589","Savigny-sur-Orge","2.35000816962718","48.6864818047923"
"IDF9103136","Briand, 155 boulevard Aristide","MOERMANN",NULL,"91600","91589","Savigny-sur-Orge","2.35295554852633","48.686994016677"
"IDF9103137","Briand, 161 boulevard Aristide","SARD + MERCIER, ex FRANCILIENNE DE CONFORT, ex SAVIGNY CHAUFFAGE SNC, ex SAVIGNY CARBURANT, ex 0SOBAL, ex BARNABE",NULL,"91600","91589","Savigny-sur-Orge","2.35400140349136","48.6871647276838"
"IDF9103138","Briand, 176 boulevard Aristide","CM AUTOMOBILES, ex GARAGE DES DEUX COMMUNES, ex DOUALLE, ex SESSOLO Frères",NULL,"91600","91589","Savigny-sur-Orge","2.36310344215593","48.6914255402218"
"IDF9103139","Briand, 275 boulevard Aristide","SESSOLO Frères",NULL,"91600","91589","Savigny-sur-Orge","2.36280476853504","48.6917223654331"
"IDF9101019","Perray - Vaucluse, Hôpital de","CENTRE HOSPITALIER SPECIALISE DE VAUCLUSE","Hôpital","91360","91216","Épinay-sur-Orge","2.31038943721272","48.663215384805"
"IDF9103122","Allemanne, 85 rue Jean","BAHUT Gérard, ex BAHUT, ex MAROCCO",NULL,"91600","91589","Savigny-sur-Orge","2.33925164834942","48.6899896403317"
"IDF9101021","Pont Rubeau, chemin du","TRANSPORTS MALGUY",NULL,"91360","91216","Épinay-sur-Orge","2.33214903836028","48.6792613116213"
"IDF9103143","Davout, 3 place","LACOU",NULL,"91600","91589","Savigny-sur-Orge","2.35269410574291","48.6760679825308"
"IDF9102031","Marché, 8 place du","MICHAUT A. & A. MARTIN","Atelier de traitement des métaux, menuiserie","91470","91338","Limours","2.07688705768891","48.6462302121361"
"IDF9103149","Foch, 3 avenue du Maréchal","PERIOLAT René",NULL,"91600","91589","Savigny-sur-Orge","2.36474815029636","48.6935384288264"
"IDF9103164","Péri, 4-6-8 avenue Gabriel","ORTEC SONOFI",NULL,"91600","91589","Savigny-sur-Orge","2.35719360923426","48.6883512425642"
"IDF9103153","Grande Rue, 4 bis","VIDEAU - Savigny Automobiles, ex BLONDEL","Garage","91600","91589","Savigny-sur-Orge","2.35436426251787","48.675959831367"
"IDF9103169","Saint Jacques, 134 avenue","CM AUTOMOBILES, ex FONDERIE GUILLEMINOT","Garage","91600","91589","Savigny-sur-Orge","2.35221029577763","48.6928033727544"
"IDF9103167","Rossays, chemin des","MAIRIE DE SAVIGNY-SUR-ORGE",NULL,"91600","91589","Savigny-sur-Orge","2.33801532104626","48.6705025850044"
"IDF9103185","Gaulle, 1 bis av. du Général de","CIEC (Chauffage des Immeubles et entretien des Chaufferies)","Compagnie de chauffage","91450","91600","Soisy-sur-Seine","2.45490348379149","48.6422048171574"
"IDF9101030","Près, voie des","DOM -Commune d'Epinay - sur - Orge",NULL,"91360","91216","Épinay-sur-Orge","2.32203512901412","48.6695573468731"
"IDF9101031","Tourelles, chemin des","PHOTO EXPRESS, ex COMPTOIRS MODERNES",NULL,"91360","91216","Épinay-sur-Orge","2.33726856765066","48.668425287472"
"IDF9101032","Tourelles, 21 chemin des","JFM AUTO, ex SOUBRIER","Garage","91360","91216","Épinay-sur-Orge","2.33532706042151","48.669333528532"
"IDF9101037","Bas Canal, chemin du","PMC AUTO, ex SOMET (Sté DE METALLISATION ETAMPOISE)","Garage","91150","91223","Étampes","2.16401646755296","48.4295769924628"
"IDF9101038","Bas Canal, chemin du - Lieu-dit ""Bas Canal""","PMC AUTO, ex ALUFON, ex BAZIN","Garage","91150","91223","Étampes","2.1643944015114","48.4296944715162"
"IDF9103170","Vigier, 14 rue","TULLIOT et ARTIGAUD",NULL,"91600","91589","Savigny-sur-Orge","2.34289023710498","48.6763656508294"
"IDF9103186","Gaulle, 6 av. du Général de","CGC (COMPAGNIE GENERALE DE CHAUFFE)","Compagnie de chauffage","91450","91600","Soisy-sur-Seine","2.45683264844176","48.6431560232529"
"IDF9103187","Libération, 23 av. de la (ex n° 47)","AD HOC, ex PORSEC, ex PRATOUSSY","Garage","91450","91600","Soisy-sur-Seine","2.44319943607256","48.6516765809288"
"IDF9103201","Bourgogne, avenue de","ESSOURIAU, Lycée polyvalent de l'","Lycée","91940","91692","Les Ulis","2.16466834488924","48.6760101306303"
"IDF9102187","Gare, 1 avenue de la  (RN 837)","BOUDON M.",NULL,"91720","91359","Maisse","2.39042483002573","48.3913984304778"
"IDF9102191","Grande Rue, 36  (RN 837)","SAINT-LARY Raymond","Station service","91720","91359","Maisse","2.37747897047424","48.3943352852794"
"IDF9102200","Clos du Chêne Rond, lieu-dit le","SCOP TRAVAUX PUBLICS DE L'ESSONNE","Travaux publics","91460","91363","Marcoussis","2.20792933781162","48.6397641996937"
"IDF9103188","République, 74 bd de la","NEON PROGRES","Fabrique d'enseignes","91450","91600","Soisy-sur-Seine","2.44555828013131","48.6504243814575"
"IDF9102195","RN 449 de Malesherbes à Arpajon","IMHOF-BEDCO, ex GERARD","Atelier de travail des métaux","91720","91359","Maisse","2.38097435740603","48.4077775723936"
"IDF9102196","Saint Eloi, chemin de","FULCHIRON INDUSTRIELLE","Carrière","91720","91359","Maisse","2.40868826624652","48.39772797932"
"IDF9102202","CD 3","MARCOUSSIS, commune de","Décharge d'ordures ménagères","91460","91363","Marcoussis","2.18619645152619","48.6427319572813"
"IDF9102203","CD 3","SCHUTZ PRODUCTION, ex SPIE BATIGNOLLES","Fabrique de poches en plastique","91460","91363","Marcoussis","2.18849601623356","48.6588498104011"
"IDF9102192","Libération, 3 boulevard de la","FAUCHER Alain","Décharge de pneumatiques","91720","91359","Maisse","2.37596482120001","48.3919258633479"
"IDF9103190","Warin, 3 rue Eugène (RN 448)","GARAGE DES DONJONS (Ent. CAYE), ex HEROT Louis","Station service, garage","91450","91600","Soisy-sur-Seine","2.44893357928188","48.6485956102557"
"IDF9103196","Rotterdam, 2-4 rue de","CHEM-TREND FRANCE + RINCENT BTP SERVICES","Travaux publics","91250","91617","Tigery","2.54250240149507","48.6438879272468"
"IDF9102206","Autoroute F6 (ex voie express F6)","STPV (Sté de TRAVAUX PUBLICS DE VALENCIENNE)","Travaux publics","91460","91363","Marcoussis","2.1903977819409","48.6491492139886"
"IDF9102207","CGC 3 de Folloville à Orsay, n°19 + CR 18","MATRASUR COMPOSITES, ex TIC","Commerce machines pour matériaux composites et mousse polyuréthane. Anc. Garage, chaudronnerie, DLI","91460","91363","Marcoussis","2.19583095262602","48.6475374234925"
"IDF9102208","Fontaine de Jouvence, ZA de la","CARS D'ORSAY, LES","Transports touristiques","91460","91363","Marcoussis","2.20676214908667","48.6658325401144"
"IDF9102209","RN 104 - La Francilienne","BP FRANCE, ex MOBIL OIL FRANCAISE","Station service","91460","91363","Marcoussis","2.2016921749362","48.638084305822"
"IDF9102214","Nozay, côte de","SMS (SOCIETE DES MATERIAUX DE LA SEINE)","Décharge de déchets industriels banals","91460","91363","Marcoussis","2.1848274742663","48.6422175501538"
"IDF9102220","Salmouille, la - Lot 21 - PK 23.660","BOUYGUES et GUINTOLI","Chantier TGV Atlantique","91460","91363","Marcoussis","2.18551810412873","48.6560851333764"
"IDF9103182","Carrières, 35 rue des","BOSSE R.","Industrie du caoutchouc","91450","91600","Soisy-sur-Seine","2.44624401931166","48.6536970467782"
"IDF9102211","Joly de Bammeville, rue","TECHNIPLAST + LCL (LYOEN - CABANNE - LAPLANCHE)","Fabrique de matières plastiques","91460","91363","Marcoussis","2.2146571640845","48.6628467680288"
"IDF9102212","Dubois, rue ou rue de Monthléry  (RN 446)","DOCKS DE FRANCE (ATAC)","Station service","91460","91363","Marcoussis","2.25253067795285","48.6396532964588"
"IDF9102219","Pasteur, 11 rue","SEIP CUISINIER",NULL,"91460","91363","Marcoussis","2.22917520240347","48.6412072105952"
"IDF9101040","Belles Croix, rue des","THIBAULT Pierre et Fils","Atelier de traitement des métaux","91150","91223","Étampes","2.1354217889229","48.4236216116161"
"IDF9101041","Belles Croix, rue des","REBOUTIER Pierre","Atelier de traitement des métaux","91150","91223","Étampes","2.13445052986869","48.4232511866701"
"IDF9101046","Bonneveaux, avenue de","CARREFOUR FRANCE SAS (SNC avant 1995)","Station service","91150","91223","Étampes","2.15953229036086","48.4290574755751"
"IDF9101048","Sucrerie, ZAC de la; Voie Nouvelle","SFE (Sté des FERRAILLES DE L'ESSONNE)","Casse automobile","91150","91223","Étampes","2.14599033777171","48.4510938786656"
"IDF9101068","Vallée Colin, résidence","CGC (Cie GENERALE DE CHAUFFAGE), ex PERIN, ex SONEX","Compagnie de chauffage","91150","91223","Étampes","2.15227535513678","48.4403223679675"
"IDF9101071","Gaulle, 26 avenue du général de (D 49)","CENTRE HOSPITATLIER GENERAL D'ETAMPES","Hôpital","91150","91223","Étampes","2.14900890568955","48.4212080700433"
"IDF9101073","Grenots, avenue des","RAZEL FRERES","Travaux publics","91150","91223","Étampes","2.15213523722358","48.4526507889493"
"IDF9101074","Grenots, rue des (ex Voie Est)","LASERSON ; ex Laserson et sabetay","Commerce de gros de produits chimiques","91150","91223","Étampes","2.1610347020837","48.4513970446326"
"IDF9101075","Grenots, 13 avenue des","RIVARD Jean-Charles","Atelier de traitement des métaux, travail du bois","91150","91223","Étampes","2.15799471573653","48.4509606374741"
"IDF9101076","Grenots, 19 avenue des","POLE-DECO","Atelier de traitement des métaux","91150","91223","Étampes","2.15694026330137","48.4509769490212"
"IDF9101077","Grenots, 25 avenue des (ex Voie Nouvelle)","PIECES AUTOS 91, ex FRANCE PIECES AUTOMOBILES","Casse automobile","91150","91223","Étampes","2.15411491278078","48.4510083867675"
"IDF9101066","Doumer, 41 rue Paul, ex rue basse de la Foulerie (1864)","BILLARD Auguste","Tannerie","91150","91223","Étampes","2.15584866598887","48.4313716811285"
"IDF9101067","Egalité, 5 rue de l'","ETAMPES, commune d'",NULL,"91150","91223","Étampes","2.16429375366588","48.4392892425237"
"IDF9102205","Autoroute F6 (ex voie express F6)","GESMIN, ex BP","Station service","91460","91363","Marcoussis","2.18852741056574","48.648310467736"
"IDF9100811","Lac, 9-13 avenue du","COMPAQ Computer, ex DIGITAL EQUIPEMENT FRANCE (du groupe DEC)","Fabrique de matériels informatiques","91080","91182","Courcouronnes","2.42290998841227","48.620615172002"
"IDF9100810","Thorigny, mail de (ex route de la Garenne, Centre Commercial de Thorigny)","BOULE DE NEIGE","Pressing","91080","91182","Courcouronnes","2.40633463936519","48.6204958946302"
"IDF9100812","Luberon et du Vercors, 4 allée du","CEGELEC, ex ASEA SERVICE","Installation industrielle d'électricité","91080","91182","Courcouronnes","2.4262359618723","48.614605552497"
"IDF9100823","Orme-à-Martin, av. de l'","BP FRANCE, ex MOBIL OIL FRANCE","Station service","91080","91182","Courcouronnes","2.41733833112936","48.6309697360628"
"IDF9100828","Vanoise, 2 place de la","EG ET G. INSTRUMENT",NULL,"91080","91182","Courcouronnes","2.42841918055298","48.6144509469967"
"IDF9100829","Vanoise, 5 place de la","NOUVELLE DE TOURNERIE, ex ATELIERS DES TOURNELLES","Fabrique d'objets divers","91080","91182","Courcouronnes","2.42806617466529","48.6142354071867"
"IDF9100834","Allende, 43 avenue du Président Salvador (ex 43 avenue de la Grange)","CENTRALE GARAGE, ex CENTRAL AUTO, ex FERREYRA ET SES FILS","Garage, carrosserie","91560","91191","Crosne","2.46944124401798","48.7208476661713"
"IDF9100824","Pelvoux, 43 rue du (Bât.D)","ROTO91, ex GILBERT CLAREY, ex EDICIS EVRY, ex EDICIS","Imprimerie","91080","91182","Courcouronnes","2.42858047814548","48.6136594680279"
"IDF9100825","Briard, rue du Plessis","V33",NULL,"91080","91182","Courcouronnes","2.40957844980856","48.6311008371015"
"IDF9102034",NULL,"PIERBURG-FRANCE + UTAC, ex CITROEN + PEUGEOT","Entretien automobile","91310","91339","Linas","2.24158323308527","48.6240873793027"
"IDF9102036","Boillot, avenue Georges","UNM",NULL,"91310","91339","Linas","2.25479479499244","48.6243585139658"
"IDF9102039","Filois, chemin du","AUTO-BOUM","Garage","91310","91339","Linas","2.26246486606201","48.6294266596848"
"IDF9102040","Hauts Chupino, chemin des","MOCLIOCO Ginette","Ferrailleur","91310","91339","Linas","2.25782555172158","48.6292346690181"
"IDF9101051","Coquerive, avenue de (RN 191)","TOTAL RAFFINERIE DISTRIBUTION, ex Cie FRANCAISE DE RAFFINAGE TOTAL","Station service","91150","91223","Étampes","2.17204333160641","48.4334737151826"
"IDF9102041","Lampe, chemin de la","LESAINE Fernand",NULL,"91310","91339","Linas","2.26376246613227","48.6326558555308"
"IDF9101052","Coquerive, 2 avenue de (ex allée de Coquerive - N 119)","GLST (Sté GENERALE DE LOCATION ET SERVICES TEXTILES), ex ELIS (EUROPE LINGE SERVICE), ex BLAN'R, ex  RECULE, ex BALSAN, ex HARRISSARD","Blanchisserie, teinturerie","91150","91223","Étampes","2.17204128763545","48.4340941897862"
"IDF9102052","Roches, chemin des","JOURDAIN + LAMBINET","Casse automobile","91310","91339","Linas","2.24726915167347","48.6152702699211"
"IDF9101050","Chesnay, hameau du","MARLINE","Station service","91150","91223","Étampes","2.10938360825393","48.4570870886598"
"IDF9102033","Arpajonais, rue de l'","MOUTON M.",NULL,"91310","91339","Linas","2.26944762634736","48.6322277413684"
"IDF9102035","Boillot, 25 rue Georges","TRANSPORTS P.M. (Pédro Manuel)","Transports","91310","91339","Linas","2.25612253430123","48.625348656633"
"IDF9101054","Croix de Versailles, chemin de la","INTERFUEL, ex IFRACO (Sté ILE DE FRANCE COMBUSTIBLES)","Dépôt de liquides inflammables","91150","91223","Étampes","2.16764081428186","48.4486374525508"
"IDF9101055","D 63","VIDANGES REUNIES, Sté DES","Dépôt d'immondices","91150","91223","Étampes","2.18014456046396","48.4226583705033"
"IDF9101058","CD 207 (Route - Les - Scelles)","SAER (Sté D'AMENAGEMENT, D'EXPLOITATION ET DE RAMASSAGE), ex SIRECTOM","Décharge d'ordures ménagères","91150","91223","Étampes","2.16140380414134","48.4540773700352"
"IDF9101053","Cordeliers, 37 rue des","INTERFUEL, ex IFRACO (ILE DE FRANCE COMBUSTIBLES), ex CAYLA Roger, ex CONTAREL.","Dépôt de liquides inflammables","91150","91223","Étampes","2.15172695169242","48.4314729128672"
"IDF9102032","Rambouillet, 40 rue de","Coopérative Agricole d'Approvisionnement du Hurepoix + Coopérative Agricole de céréales du Hurepoix","Coopérative agricole","91470","91338","Limours","2.059473091448","48.6418275576005"
"IDF9100836","Branly, rue Edouard","MEDART Henri","Fabrique de colorants","91560","91191","Crosne","2.46036686042392","48.7226383924686"
"IDF9100837","Colbert, 13 rue","BATYTHERME","Compagnie de chauffage","91560","91191","Crosne","2.46126370650678","48.717097925064"
"IDF9100839","Investisseurs, 9-11 rue des","FONDERIE DU JARDIN","Fonderie","91560","91191","Crosne","2.4698191548136","48.7249658781287"
"IDF9100842","Jaurès, 28 avenue Jean (D22)","CGEC","Compagnie de chauffage","91560","91191","Crosne","2.46241198957197","48.7143628927272"
"IDF9100843","Jaurès, 32 avenue Jean (D32)","YBERT Eugène","Station service","91560","91191","Crosne","2.46171905149211","48.7144086159076"
"IDF9100844","Jaurès, 34 avenue Jean (D32)","NET EXPRESS, ex LACAUX, ex LACAUSSE ou LACAUSE, ex BELIN","Blanchisserie, teinturerie","91560","91191","Crosne","2.46189685830384","48.7148670481577"
"IDF9101322","Barbusse, 1 place Henri (ex Corbeil, 2 route de)","SNC COMPAGNIE DES PETROLES ET GENERALES DE SERVICES (CPGS), ex ELF ANTAR FRANCE, ex EUROMARCHE, ex GRANDS EXPRESS MARCHES (GEM)","Station service","91350","91286","Grigny","2.39457194422217","48.6531143522058"
"IDF9101370","Picotois, chemin de","BEZET JOLIET",NULL,"91430","91312","Igny","2.20446792948696","48.7372407237118"
"IDF9100847","Maroc et du Printemps, 34-36 av. du (ex n°25-27)","PEGORIER Lucien","Station service","91560","91191","Crosne","2.4506406245024","48.7189884723073"
"IDF9101331","Port, 1 chemin du (RN 7)","ELF FRANCE, ex UNION INDUSTRIELLE DES PETROLES","Station service","91350","91286","Grigny","2.40140343013919","48.6671572036921"
"IDF9101337","Plessis, 13 chemin du","GARAGE FERME NEUVE","Station service, carrosserie","91350","91286","Grigny","2.38739268042955","48.6537382378165"
"IDF9101338","Potager de l'Arbalette, 7 allée du","THERMICAL","Compagnie de chauffage","91350","91286","Grigny","2.39164736816732","48.6596264574036"
"IDF9101339","Port, 1 chemin du","CIM (Cie INDUSTRIELLE MARITIME) + INDUSTRIELLE DES PETROLES ANTAR - ELF","Cokéfaction","91350","91286","Grigny","2.40206929217685","48.6676334361815"
"IDF9100849","République, 3 avenue de la (D32)","RICBOURG Maurice, ex CAVAM","Station service","91560","91191","Crosne","2.45534242101498","48.718767867778"
"IDF9100850","République, 4 avenue de la (ex CGC 32)","CABLERIES DE CROSNES, ex Sté DES CABLERIES DE LA SEINE, ex HAAS Henri","Atelier de travail des métaux","91560","91191","Crosne","2.45558901283401","48.7195949386209"
"IDF9100851","République, 16 avenue de la (D32)","DUCLOS","Garage","91560","91191","Crosne","2.45302108993929","48.7199033301528"
"IDF9100853","République, 59 avenue de la (D 32)","BRANT, ex Sté NAUTIQUE SPORTIVE, ex Sté LA NAUTIQUE SPORTIVE","Industrie du caoutchouc","91560","91191","Crosne","2.44869957762682","48.7200605183093"
"IDF9100863","Beaurepaire, chemin de (ex CR N° 33 et CR N°34)  (en 1969)","ORAY","Fabrique d'écrans de cinéma","91410","91200","Dourdan","2.03551212470829","48.5245563832207"
"IDF9101328","Eiffel, 5-7 rue Gustave","LEFEVRE Jean","Travaux publics","91350","91286","Grigny","2.39547444453608","48.6704966654631"
"IDF9101329","Eiffel, 8-10 rue Gustave","SITRABA (Assistance Maintenance et Location)","Atelier de traitement des métaux","91350","91286","Grigny","2.39798595884783","48.6702615428978"
"IDF9101340","Rousseau, 1-3 rue Jean-Jacques","COCA COLA ENTREPRISE, ex PARISIENNE DES BOISSONS GAZEUSES","Industrie des boissons","91350","91286","Grigny","2.38473984241693","48.6472736759529"
"IDF9100864","Six juin 1944, allée du  (ex chemin de Beaurepaire)","MECANOBLOC","Atelier de mécanique générale, traitement des métaux","91410","91200","Dourdan","2.03574697617975","48.5237746525985"
"IDF9100868","Champs de Courses, chemin du","SMNIF (Sté DE METALLURGIE NOUVELLE DE L'Ile de France)","Atelier de métallurgie","91410","91200","Dourdan","1.99577447615208","48.5350819901777"
"IDF9100869","Champs de Courses, chemin du (CR N° 60)","LEP Alfred Kastler (Lycée d'Enseignement Professionnel)","Lycée","91410","91200","Dourdan","1.99085441813716","48.5338171024675"
"IDF9100870","Chariot, 6 place du","LECOQ René - Lucien, ex LECOQ Louis","Garage","91410","91200","Dourdan","2.01299501314652","48.5272190154008"
"IDF9100866","Carnot, 17 avenue  (ex 11 ter avenue Carnot)","DROT, ex DROT Jean","Station service","91410","91200","Dourdan","2.01122679125134","48.5326364885245"
"IDF9101089","Moulin du Bourgneuf, 2 passage du (ex impasse)","SMP (SEBLAGE METALLISATION PEINTURE), ex REBOUTIER Henri, ex REBOUTIER Pierre","Atelier de traitement des métaux","91150","91223","Étampes","2.17013187525184","48.4312497811083"
"IDF9101091","Moulins des Fontaines, chemins des","BAZIN Raymond","Fonderie","91150","91223","Étampes","2.17296404766459","48.432917524029"
"IDF9101360","Cachin, 2 boulevard Marcel","PRESSING YVON",NULL,"91430","91312","Igny","2.22937381590302","48.7314487553161"
"IDF9100865","Bonniveau, rue de","SCP PATIN, ex CHASTANG Augustin","Station service","91410","91200","Dourdan","2.00204213676262","48.5333111491998"
"IDF9101342","Treille, 1-3 place de la","GRIGNY PRESSING","Pressing","91350","91286","Grigny","2.37174211424993","48.6520084876947"
"IDF9101364","Jaurès, 110 avenue Jean","TOTAL RAFFINAGE ET DISTRIBUTION, ex TOTAL Cie FRANCAISE DE RAFINAGE",NULL,"91430","91312","Igny","2.24117117915851","48.7325654150103"
"IDF9101359","Bièvres, 8 impasse de la","BLANCHISSERIE TEINTURERIE D'IGNY, ex ALIMOTEX, ex RDT INDUSTRIEL, ex VICLO, ex VITONET, ex GILBON",NULL,"91430","91312","Igny","2.22956212531257","48.7449649487999"
"IDF9101362","Gaulle, voie du Général de","BP, ex SOGESTAS","Station service","91430","91312","Igny","2.22217926751641","48.744687952418"
"IDF9101371","Picotois, chemin du","BENNES EXPRESS, ex PAF AUTO, ex NICQUEL, ex LATTANZI, ex THEVENARD  VAUHALLAN AUTOMOBILES, ex  ANQUETIL",NULL,"91430","91312","Igny","2.20915718437846","48.7377047193342"
"IDF9101374","République, 45 avenue de la","ROUX Marcelle",NULL,"91430","91312","Igny","2.22503378450543","48.7330362693275"
"IDF9101375","République, 69 avenue de la","BLANCHISSERIE DE LA BIEVRES",NULL,"91430","91312","Igny","2.22276733322009","48.731379359622"
"IDF9100873","Chateaudun, avenue de (D5)","COURAL Maurice","Station service, garage","91410","91200","Dourdan","2.00585179389968","48.5264429954236"
"IDF9100874","Chateaudun, 5 avenue de (D5)","APPLICATIONS PLASTIQUES, LES, ex GOMELSKI","Fabrique d'enseignes","91410","91200","Dourdan","2.00631613173876","48.5258328538441"
"IDF9100877","Etampes, 29 avenue de (D836) (en 1987)  (ex route du Faubourg d'Etampes en 1960)","DA SILVA José, ex Sté INDUSTRIELLE D'ETUDES ET DE REALISATIONS SCIENTIFIQUES, ex LAMBERDIERE Gaston","Garage","91410","91200","Dourdan","2.01575749753365","48.52501469809"
"IDF9100878","Etampes, 49 avenue d'  (D836)","SODAUTO","Station service, garage","91410","91200","Dourdan","2.01678382189983","48.5233000161406"
"IDF9100899","Quatorze juillet 1789, avenue du","SICTOM DU HUREPOIX (Syndicat Intercommunal de Collecte et de Traitement des OM de la Région du Hurepoix) + STANEXEL (filiale régionale des services du groupe SITA)","Décharge d'ordures ménagères","91410","91200","Dourdan","2.02259285707752","48.520915255921"
"IDF9100884","Gaudrée, ZI de la","ASD (Atelier Spécialisé de Dourdan)","Fabrique de peintures et solvants","91410","91200","Dourdan","2.02566974432579","48.5224434965927"
"IDF9100885","Gaudrée, 7 impasse de la  (en 1995)","SACAD (SA Commerciale des Automobiles de Dourdan) - agence Citroën, ex LESAGE, ex LESAGE R.","Garage","91410","91200","Dourdan","2.02542163352493","48.5253294366462"
"IDF9100433","Cerçay, 69 rue de","STM (SERRURERIE - TOLERIE - MODERNE)","Chaudronnerie","91800","91114","Brunoy","2.51386155130042","48.706857743835"
"IDF9100902","Laubier, rue Raymond","ECOSEC, ex BILLOT","Pressing","91410","91200","Dourdan","2.02152148150531","48.5276657168267"
"IDF9100893","Grillon, en bordure de la rivière de l'Orge","AMO ( Association des Moulins de l'Ouest), ex GUIMETY, ex BROQUETTE","Meunerie","91410","91200","Dourdan","1.99095783440505","48.5286556559803"
"IDF9100895","Jalots, chemin des","PEPINIERES DE GENTILLY, ex  BALANCA A. et Cie","Exploitation agricole","91410","91200","Dourdan","2.02352611658484","48.5145600828151"
"IDF9100896","Jalots, impasse des","IMBERT SOLFIX","Fabrique de peintures et solvants","91410","91200","Dourdan","2.02127058379471","48.5202281435698"
"IDF9101376","Sablière, 8 rue de la","CADIERNO",NULL,"91430","91312","Igny","2.2358239220014","48.7282083201625"
"IDF9101102","Paris, 18 avenue de (D 21)","SNEI (Sté NOUVELLE D'EDITION ET D'IMPRESSION), ex SCI (Sté CIVILE IMMOBILIERE)","Imprimerie","91150","91223","Étampes","2.16647319523518","48.4382404345347"
"IDF9101103","Paris, 49 avenue de (RN 20)  (ex 49 rue de Paris - D 21)","SHELL FRANCAISE","Station service","91150","91223","Étampes","2.16548664654107","48.4382389426994"
"IDF9101101","Notre-Dame, 37 place","PRESSING NOTRE DAME, ex YEME","Pressing","91150","91223","Étampes","2.16317653502784","48.4340988960177"
"IDF9101104","Paris, 67 avenue de (D 21)","BLIN","Stockage, vente de combustibles","91150","91223","Étampes","2.16780659014786","48.4395823102537"
"IDF9101106","Filière, sente de la","LEBRUN Pierre",NULL,"91150","91223","Étampes","2.15915357431608","48.4291647896986"
"IDF9101109","Plaine du Laris, lieu-dit la","CARS MARIGNON, LES","Transports","91150","91223","Étampes","2.14513213983083","48.4422258678768"
"IDF9101111","Prés, promenade des","GAZ D'ETAMPE (SA DU) : Cie GENERALE DU GAZ pour la France et l'Etranger, ex EICHELBRENNER et Cie, ex EICHELBRENNER Auguste","Usine à gaz","91150","91223","Étampes","2.16217374636968","48.4310309316639"
"IDF9101114","CR n°118 d'Etampes à Sarclas","FOUGEREUX","Casse automobile","91150","91223","Étampes","2.14365458636352","48.4188520200656"
"IDF9101115","Religieuses, carrefour des (ex cours des Religieuses)","CAISSE REGIONALE DE CREDIT AGRICOLE MUTUEL DE L'ILE DE FRANCE, ex COOPERATIVE AGRICOLE DE CEREALES ET D'APPROVISIONNEMENT DE LA REGION D'ETAMPES","Coopérative agricole","91150","91223","Étampes","2.15124313516716","48.430761717164"
"IDF9102055","Royal, 38 chemin","DRMTP",NULL,"91310","91339","Linas","2.26174432147371","48.621467720249"
"IDF9101095","Cordeliers, 37 rue des; RN 20","GARAGE DU BOIS RENAUD, ex SFP BP (Sté FRANCAISE DES PETROLES BP)","Station service","91150","91223","Étampes","2.12699062789711","48.4108730019131"
"IDF9101401","Cour de France, 1 avenue de la","GRAND GARAGE DE L'ESSONNE","Station service, garage","91260","91326","Juvisy-sur-Orge","2.37195637763556","48.6868639060435"
"IDF9101402","Cour de France, 23-25 avenue de la","GARAGE AMIEL Georges","Garage","91260","91326","Juvisy-sur-Orge","2.37019367442246","48.6912888170427"
"IDF9101403","Cour de France, 38 avenue de la","BESSE ET GUILBAUD, ex BESSE Marcel","Garage","91260","91326","Juvisy-sur-Orge","2.37147289253182","48.694813561276"
"IDF9100900","Quatorze juillet 1789, 2 avenue du","FAMEL (Garage Peugeot - Talbot)","Garage, carrosserie","91410","91200","Dourdan","2.01853027361538","48.5211557066323"
"IDF9101408","France, 14 place Anatole","PELLEGRINO","Imprimerie","91260","91326","Juvisy-sur-Orge","2.37497328838323","48.6891920429154"
"IDF9101409","Gambetta, 1 bis et 5 quai","NOUVELLE SUPEMEC PRODUMATIC, ex SUPEMEC, ex CONSTAN SUPEMEC, ex MOTEURS CONSTAN, ex FONDERIES DE LA HAUTE - SEINE",NULL,"91260","91326","Juvisy-sur-Orge","2.38432773672741","48.6851508530272"
"IDF9101410","Gambetta, 7 quai","BOSSIS",NULL,"91260","91326","Juvisy-sur-Orge","2.38492553667884","48.6853844130022"
"IDF9101413","Grande Rue, 3","MAIRIE DE JUVISY - SUR - ORGE, ex COPAVI - Concessionnaire BERLIET",NULL,"91260","91326","Juvisy-sur-Orge","2.3773895042895","48.6873926846052"
"IDF9101380","Ampère, 14 rue","LE CARRE BLANC, ex SARGI","Nettoyage industriel","91430","91312","Igny","2.23746516617743","48.7299633431766"
"IDF9101382","Ampère, rue","POLIGRAT FRANCE",NULL,"91430","91312","Igny","2.23761566482996","48.7294778698489"
"IDF9100908","Paris, 30 avenue de (ex 16)  (D116)","LESAGE FRERES, ex LESAGE","Garage","91410","91200","Dourdan","2.0215877968959","48.5300309547552"
"IDF9100909","Paris, 51 avenue de (D116)  (ex 35 bis)","PEPINIERES DE GENTILLY, ex BALANCA André","Pépinières","91410","91200","Dourdan","2.02084058993062","48.5304335404039"
"IDF9101138","Saint-Hilaire, avenue Geoffroy","ESYS - MONTENAY, ex PERIN, ex SONEX",NULL,"91150","91223","Étampes","2.14276795121098","48.4349919087191"
"IDF9100910","Paris, 101 avenue de (D116)","RICHEROLLE, ex RICHEROLLE, GARAGE, ex Cie DE RAFFINAGE ET DE DISTRIBUTION TOTAL FRANCE, ex Cie FRANCAISE DE RAFFINAGE TOTAL","Station service, garage","91410","91200","Dourdan","2.02957275558135","48.5305564751265"
"IDF9100906","Madre, le","BILLIANT Jules Gabriel","Tannerie","91410","91200","Dourdan","2.01530473807869","48.5259486443054"
"IDF9100919","Soufflets, chemin des (ex CR n°33)","CALORSTAT INDUSTRIES, ex CALORSTAT","Atelier de traitement des métaux","91410","91200","Dourdan","2.02356054894365","48.5198658032003"
"IDF9100920","Vaubesnard, chemin de","ARROW France + FLORANA + ALPHA SYSTEME + SERMIA + ATP + CHELTON-RAYAN, ex SAT (Sté ANONYME DE TELECOMMUNICATIONS)",NULL,"91410","91200","Dourdan","2.01957657425207","48.5375971143735"
"IDF9100911","Potelet, 2 rue du","CENTRE HOSPITALIER DE DOURDAN","Hôpital","91410","91200","Dourdan","1.99984424087775","48.5339610954638"
"IDF9101151","Saint-Michel, 43 et/ou 49 boulevard (RN 20)  (en 1973)","MONIN, HARLE et Cie","Atelier de travail des métaux","91150","91223","Étampes","2.16999479421585","48.4439918581361"
"IDF9101137","Saint-Gilles, 33 place","DENIZET William",NULL,"91150","91223","Étampes","2.1544141762994","48.4319628746229"
"IDF9101152","Saint-Michel, 64 boulevard (D 21)","BRADEL Robert, Sté D'EXPLOITATION DES TRANSPORTS","Transports routiers - DLI","91150","91223","Étampes","2.17157568129127","48.4441380604423"
